{"58220": {"latitude": 37.85362, "code": "58220", "longitude": -122.25994, "id": "0305560", "name": "Telegraph Av & Prince St"}, "58222": {"latitude": 37.8041699, "code": "58222", "longitude": -122.27119, "id": "1006400", "name": "Broadway & 14th St (12th St BART Station)"}, "59895": {"latitude": 37.8899, "code": "59895", "longitude": -122.25234, "id": "0304750", "name": "Shasta Rd & Grizzly Peak Blvd"}, "58226": {"latitude": 37.9066702, "code": "58226", "longitude": -122.2745801, "id": "9901390", "name": "Trinity Av & Beloit Av"}, "58227": {"latitude": 37.89246, "code": "58227", "longitude": -122.2650499, "id": "0302410", "name": "Euclid Av & Easter Way"}, "59898": {"latitude": 37.7686999, "code": "59898", "longitude": -122.20687, "id": "1008560", "name": "International Blvd & 52nd Av"}, "59899": {"latitude": 37.8818699, "code": "59899", "longitude": -122.27011, "id": "0305120", "name": "Shattuck Pl & Rose St"}, "58389": {"latitude": 37.89248, "code": "58389", "longitude": -122.2564299, "id": "0302870", "name": "Grizzly Peak Blvd & Creston Rd (South-East"}, "58958": {"latitude": 37.87631, "code": "58958", "longitude": -122.28518, "id": "0301260", "name": "Cedar St & Acton St"}, "50577": {"latitude": 37.8299, "code": "50577", "longitude": -122.28488, "id": "0600050", "name": "40th St & Hollis St"}, "51300": {"latitude": 37.8651099, "code": "51300", "longitude": -122.26737, "id": "0304950", "name": "Shattuck Av & Haste St"}, "55294": {"latitude": 37.88637, "code": "55294", "longitude": -122.26235, "id": "0302430", "name": "Euclid Av & Eunice St"}, "50163": {"latitude": 37.8307999, "code": "50163", "longitude": -122.2815699, "id": "0601150", "name": "40th St & Emery St"}, "55762": {"latitude": 37.8562299, "code": "55762", "longitude": -122.2469199, "id": "0301620", "name": "Claremont Av & Webster St"}, "55763": {"latitude": 37.8541099, "code": "55763", "longitude": -122.2486199, "id": "0301630", "name": "Claremont Av & Woolsey St"}, "55766": {"latitude": 37.89039, "code": "55766", "longitude": -122.29587, "id": "0200590", "name": "Solano Av & Cornell Av"}, "50164": {"latitude": 37.74924, "code": "50164", "longitude": -122.1742799, "id": "1031640", "name": "International Blvd & 90th Av"}, "55769": {"latitude": 37.8925999, "code": "55769", "longitude": -122.25645, "id": "0302880", "name": "Grizzly Peak Blvd & Creston Rd (South-East"}, "54265": {"latitude": 37.8883519, "code": "54265", "longitude": -122.266772, "id": "0305300", "name": "Spruce St & Los Angeles Av"}, "57512": {"latitude": 37.8899199, "code": "57512", "longitude": -122.26246, "id": "0302330", "name": "Euclid Av & Bret Harte Path"}, "59099": {"latitude": 37.8493599, "code": "59099", "longitude": -122.26566, "id": "1019260", "name": "Shattuck Av & Alcatraz Av"}, "51287": {"latitude": 37.7831399, "code": "51287", "longitude": -122.23567, "id": "9902750", "name": "International Blvd & 23rd Av"}, "59155": {"latitude": 37.7938399, "code": "59155", "longitude": -122.25158, "id": "1030630", "name": "International Blvd & 8th Av"}, "56586": {"latitude": 37.86298, "code": "56586", "longitude": -122.2745, "id": "0302130", "name": "Dwight Way & Grant St"}, "56585": {"latitude": 37.8537, "code": "56585", "longitude": -122.2528199, "id": "0301810", "name": "College Av & Woolsey St"}, "59090": {"latitude": 37.84352, "code": "59090", "longitude": -122.2750299, "id": "1015880", "name": "Market St & 59th St"}, "52267": {"latitude": 37.88312, "code": "52267", "longitude": -122.2617599, "id": "0302380", "name": "Euclid Av & Codornices Park"}, "56588": {"latitude": 37.7251192, "code": "56588", "longitude": -122.1583119, "id": "1500850", "name": "Davis St & Hays St"}, "52260": {"latitude": 37.8294999, "code": "52260", "longitude": -122.2879599, "id": "0600970", "name": "40th St & Horton St"}, "51977": {"latitude": 37.89724, "code": "51977", "longitude": -122.2665899, "id": "0302540", "name": "Euclid Av & Poplar St"}, "59795": {"latitude": 37.74253, "code": "59795", "longitude": -122.1693299, "id": "1008230", "name": "International Blvd & 100th Av"}, "55909": {"latitude": 37.85229, "code": "55909", "longitude": -122.2916099, "id": "0300210", "name": "7th St & Anthony St"}, "58252": {"latitude": 37.73272, "code": "58252", "longitude": -122.1619899, "id": "1501520", "name": "E 14th St & Stoakes Av"}, "59799": {"latitude": 37.8569599, "code": "59799", "longitude": -122.26665, "id": "0305000", "name": "Shattuck Av & Russell St"}, "55905": {"latitude": 37.8908599, "code": "55905", "longitude": -122.28919, "id": "0200710", "name": "Solano Av & Santa Fe Av"}, "51160": {"latitude": 37.89787, "code": "51160", "longitude": -122.2699799, "id": "0306280", "name": "Spruce St & Halkin Ln"}, "51161": {"latitude": 37.7661199, "code": "51161", "longitude": -122.20142, "id": "1008610", "name": "International Blvd & 57th Av"}, "51168": {"latitude": 37.8349932, "code": "51168", "longitude": -122.2670591, "id": "1016230", "name": "Martin Luther King Jr Way & 47th St"}, "57722": {"latitude": 37.82031, "code": "57722", "longitude": -122.26671, "id": "1020080", "name": "Telegraph Av & 31st St"}, "57725": {"latitude": 37.8658499, "code": "57725", "longitude": -122.25076, "id": "0304040", "name": "Piedmont Cr & Dwight Way"}, "55991": {"latitude": 37.85682, "code": "55991", "longitude": -122.2531099, "id": "0301670", "name": "College Av & Ashby Av"}, "55226": {"latitude": 37.86647, "code": "55226", "longitude": -122.2678099, "id": "0304890", "name": "Shattuck Av & Durant Av"}, "51765": {"latitude": 37.8786399, "code": "51765", "longitude": -122.2668, "id": "0303890", "name": "Oxford St & Cedar St"}, "55222": {"latitude": 37.8026499, "code": "55222", "longitude": -122.2724, "id": "1006290", "name": "Broadway & 12th St (12th St BART Station)"}, "55588": {"latitude": 37.7448199, "code": "55588", "longitude": -122.1707, "id": "1008860", "name": "International Blvd & 98th Av"}, "55996": {"latitude": 37.8690599, "code": "55996", "longitude": -122.29172, "id": "0304670", "name": "University Av & San Pablo Av"}, "55999": {"latitude": 37.86819, "code": "55999", "longitude": -122.2679899, "id": "0304960", "name": "Shattuck Av & Kittredge St"}, "55587": {"latitude": 37.7617, "code": "55587", "longitude": -122.1926099, "id": "1008910", "name": "International Blvd & Havenscourt Blvd"}, "55585": {"latitude": 37.86845, "code": "55585", "longitude": -122.26772, "id": "0304970", "name": "Shattuck Av & Kittredge St"}, "51606": {"latitude": 37.86749, "code": "51606", "longitude": -122.26084, "id": "9903710", "name": "Durant Av & Dana St"}, "57118": {"latitude": 37.8524499, "code": "57118", "longitude": -122.2499799, "id": "0301580", "name": "Claremont Av & Eton Av"}, "54111": {"latitude": 37.8365499, "code": "54111", "longitude": -122.2626099, "id": "1020250", "name": "Telegraph Av & 50th St"}, "57115": {"latitude": 37.85839, "code": "57115", "longitude": -122.24494, "id": "0301570", "name": "Claremont Av & Ashby Av"}, "55837": {"latitude": 37.86099, "code": "55837", "longitude": -122.24578, "id": "0301200", "name": "Belrose Av & Garber St"}, "50266": {"latitude": 37.9091699, "code": "50266", "longitude": -122.27541, "id": "9900730", "name": "Kenyon Av & Trinity Av"}, "50267": {"latitude": 37.8406899, "code": "50267", "longitude": -122.26445, "id": "1031680", "name": "Shattuck Av & 55th St"}, "59578": {"latitude": 37.85894, "code": "59578", "longitude": -122.26733, "id": "0300430", "name": "Adeline St & Ward St"}, "55652": {"latitude": 37.88014, "code": "55652", "longitude": -122.26917, "id": "0305070", "name": "Shattuck Av & Vine St"}, "58411": {"latitude": 37.82489, "code": "58411", "longitude": -122.26953, "id": "1016140", "name": "Martin Luther King Jr Way & 36th St"}, "57610": {"latitude": 37.8848, "code": "57610", "longitude": -122.2484599, "id": "0302850", "name": "Grizzly Peak Blvd & Avenida Dr"}, "58557": {"latitude": 37.81161, "code": "58557", "longitude": -122.27304, "id": "1016020", "name": "Martin Luther King Jr Way & 22nd St"}, "59977": {"latitude": 37.8620299, "code": "59977", "longitude": -122.25348, "id": "0301700", "name": "College Av & Derby St"}, "52300": {"latitude": 37.8521699, "code": "52300", "longitude": -122.28625, "id": "0301010", "name": "Ashby Av & San Pablo Av"}, "51111": {"latitude": 37.8028099, "code": "51111", "longitude": -122.27201, "id": "1006320", "name": "Broadway & 12th St (12th St BART Station)"}, "57200": {"latitude": 37.87457, "code": "57200", "longitude": -122.2688499, "id": "0304860", "name": "Shattuck Av & Delaware St"}, "55723": {"latitude": 37.8536499, "code": "55723", "longitude": -122.2601699, "id": "0305570", "name": "Telegraph Av & Prince St"}, "57478": {"latitude": 37.8835177, "code": "57478", "longitude": -122.2501308, "id": "0302630", "name": "Fairlawn Dr & Avenida Dr"}, "58000": {"latitude": 37.7768899, "code": "58000", "longitude": -122.22413, "id": "1030820", "name": "International Blvd & 34th Av"}, "50867": {"latitude": 37.8843699, "code": "50867", "longitude": -122.29798, "id": "9901710", "name": "Monroe St & San Pablo Ave"}, "53737": {"latitude": 37.8440899, "code": "53737", "longitude": -122.27491, "id": "1015870", "name": "Market St & 59th St"}, "58005": {"latitude": 37.8649099, "code": "58005", "longitude": -122.2679299, "id": "0303070", "name": "Haste St & Shattuck Av"}, "58007": {"latitude": 37.8631399, "code": "58007", "longitude": -122.2742699, "id": "0302120", "name": "Dwight Way & Grant St"}, "51500": {"latitude": 37.77459, "code": "51500", "longitude": -122.2197699, "id": "1008480", "name": "International Blvd & 38th Av"}, "51506": {"latitude": 37.85006, "code": "51506", "longitude": -122.25231, "id": "9903410", "name": "College Av & Claremont Av"}, "51507": {"latitude": 37.8516199, "code": "51507", "longitude": -122.25236, "id": "9903420", "name": "College Av & Alcatraz Av"}, "51508": {"latitude": 37.85093, "code": "51508", "longitude": -122.2525699, "id": "9903430", "name": "College Av & Alcatraz Av"}, "52525": {"latitude": 37.8484499, "code": "52525", "longitude": -122.2717499, "id": "0300330", "name": "Adeline St & Alcatraz Av"}, "52722": {"latitude": 37.8308099, "code": "52722", "longitude": -122.2739899, "id": "1015730", "name": "Market St & 40th St"}, "56477": {"latitude": 37.83089, "code": "56477", "longitude": -122.27378, "id": "1015750", "name": "Market St & 40th St"}, "55124": {"latitude": 37.8347899, "code": "55124", "longitude": -122.2672999, "id": "1016220", "name": "Martin Luther King Jr Way & 47th St"}, "55126": {"latitude": 37.89505, "code": "55126", "longitude": -122.2649999, "id": "0302510", "name": "Euclid Av & Marin Av"}, "57501": {"latitude": 37.8875871, "code": "57501", "longitude": -122.2613256, "id": "0302270", "name": "Euclid Av & #1151"}, "57050": {"latitude": 37.85597, "code": "57050", "longitude": -122.2596, "id": "0305460", "name": "Telegraph Av & Ashby Av"}, "50747": {"latitude": 37.7900999, "code": "50747", "longitude": -122.39384, "id": "1410400", "name": "Transbay Temp Terminal"}, "55005": {"latitude": 37.7217999, "code": "55005", "longitude": -122.16051, "id": "1502810", "name": "San Leandro BART Station"}, "58851": {"latitude": 37.8714099, "code": "58851", "longitude": -122.2751699, "id": "0305940", "name": "University Av & Grant St"}, "54888": {"latitude": 37.75873, "code": "54888", "longitude": -122.1863699, "id": "1008930", "name": "International Blvd & Hegenberger Rd"}, "53600": {"latitude": 37.8076499, "code": "53600", "longitude": -122.2220799, "id": "1017670", "name": "Park Blvd & Wellington St"}, "53215": {"latitude": 37.88062, "code": "53215", "longitude": -122.2614899, "id": "0302350", "name": "Euclid Av & Buena Vista Way"}, "58858": {"latitude": 37.8017299, "code": "58858", "longitude": -122.26877, "id": "1030750", "name": "12th St & Harrison St"}, "57988": {"latitude": 37.83399, "code": "57988", "longitude": -122.29329, "id": "0600890", "name": "Shellmound St & Bay St"}, "53358": {"latitude": 37.76398, "code": "53358", "longitude": -122.1973899, "id": "1008650", "name": "International Blvd & 62nd Av"}, "54499": {"latitude": 37.8447499, "code": "54499", "longitude": -122.2614099, "id": "1030840", "name": "Telegraph Av & 59th St"}, "59928": {"latitude": 37.8509999, "code": "59928", "longitude": -122.27048, "id": "0300370", "name": "Adeline St & Fairview St"}, "50991": {"latitude": 37.8811, "code": "50991", "longitude": -122.24604, "id": "0306520", "name": "Centennial Dr & Parking Lot"}, "54501": {"latitude": 37.8756399, "code": "54501", "longitude": -122.2913499, "id": "0301350", "name": "Cedar St & Cornell Av"}, "55016": {"latitude": 37.8553499, "code": "55016", "longitude": -122.2668299, "id": "0301040", "name": "Ashby Av & Shattuck Av"}, "55017": {"latitude": 37.83277, "code": "55017", "longitude": -122.26758, "id": "1016210", "name": "Martin Luther King Jr Way & 44th St"}, "50123": {"latitude": 37.8492499, "code": "50123", "longitude": -122.25217, "id": "1007480", "name": "College Av & Claremont Av"}, "57300": {"latitude": 37.8721199, "code": "57300", "longitude": -122.26798, "id": "0306420", "name": "University Av & Shattuck Av"}, "54954": {"latitude": 37.8532199, "code": "54954", "longitude": -122.2817199, "id": "0300730", "name": "Ashby Av & Acton St"}, "54955": {"latitude": 37.7748299, "code": "54955", "longitude": -122.21976, "id": "1008490", "name": "International Blvd & 38th Av"}, "55395": {"latitude": 37.8903799, "code": "55395", "longitude": -122.2983199, "id": "0200620", "name": "Solano Av & Kains Av"}, "55394": {"latitude": 37.8969599, "code": "55394", "longitude": -122.26154, "id": "0302980", "name": "Grizzly Peak Blvd & Marin Av"}, "51432": {"latitude": 37.86051, "code": "51432", "longitude": -122.2456399, "id": "0301640", "name": "Claremont Blvd & Garber St"}, "55019": {"latitude": 37.8622899, "code": "55019", "longitude": -122.2809299, "id": "0302210", "name": "Dwight Way & Sacramento St"}, "53856": {"latitude": 37.8993799, "code": "53856", "longitude": -122.27083, "id": "0305230", "name": "Spruce St & Acacia Walk"}, "54398": {"latitude": 37.89631, "code": "54398", "longitude": -122.26575, "id": "0302580", "name": "Euclid Av & Rock Ln"}, "55159": {"latitude": 37.8418899, "code": "55159", "longitude": -122.26465, "id": "1019240", "name": "Shattuck Av & Aileen St"}, "53327": {"latitude": 37.85542, "code": "53327", "longitude": -122.26862, "id": "0300340", "name": "Adeline St & Ashby Av"}, "55155": {"latitude": 37.7993299, "code": "55155", "longitude": -122.25093, "id": "1017400", "name": "4th Av & E 18th St"}, "53243": {"latitude": 37.8737799, "code": "53243", "longitude": -122.28252, "id": "0304360", "name": "Sacramento St & Francisco St (North Berkel"}, "58118": {"latitude": 37.8391399, "code": "58118", "longitude": -122.27379, "id": "1015840", "name": "Market St & 55th St"}, "55375": {"latitude": 37.82688, "code": "55375", "longitude": -122.26496, "id": "1020140", "name": "Telegraph Av & 38th St"}, "54670": {"latitude": 37.8785599, "code": "54670", "longitude": -122.26083, "id": "0302490", "name": "Euclid Av & Hilgard Av"}, "56177": {"latitude": 37.85866, "code": "56177", "longitude": -122.2670099, "id": "0305030", "name": "Shattuck Av & Stuart St"}, "55765": {"latitude": 37.8544199, "code": "55765", "longitude": -122.2709199, "id": "0300920", "name": "Ashby Av & Martin Luther King Jr Way(Ashby"}, "54775": {"latitude": 37.8032299, "code": "54775", "longitude": -122.2366699, "id": "1017410", "name": "Park Blvd & E 28th St"}, "53513": {"latitude": 37.8033399, "code": "53513", "longitude": -122.2357299, "id": "1017430", "name": "Park Blvd & E 33rd St"}, "53458": {"latitude": 37.8827999, "code": "53458", "longitude": -122.26613, "id": "0305350", "name": "Spruce St & Rose St"}, "57877": {"latitude": 37.84878, "code": "57877", "longitude": -122.2522899, "id": "1007470", "name": "College Av & Claremont Av"}, "51050": {"latitude": 37.85389, "code": "51050", "longitude": -122.2739, "id": "0300890", "name": "Ashby Av & King St"}, "59756": {"latitude": 37.8976599, "code": "59756", "longitude": -122.26689, "id": "0302530", "name": "Euclid Av & Poplar St"}, "55782": {"latitude": 37.7805299, "code": "55782", "longitude": -122.23096, "id": "1008980", "name": "International Blvd & Mitchell St"}, "51051": {"latitude": 37.7864399, "code": "51051", "longitude": -122.24084, "id": "1008350", "name": "International Blvd & 19th Av"}, "58189": {"latitude": 37.8869099, "code": "58189", "longitude": -122.25108, "id": "0302830", "name": "Grizzly Peak Blvd & Arcade Av"}, "51231": {"latitude": 37.88576, "code": "51231", "longitude": -122.2492799, "id": "0302920", "name": "Grizzly Peak Blvd & Hill Rd"}, "51233": {"latitude": 37.8910899, "code": "51233", "longitude": -122.2859599, "id": "0305180", "name": "Solano Av & Peralta Av"}, "58181": {"latitude": 37.8019399, "code": "58181", "longitude": -122.2437499, "id": "1017620", "name": "Park Blvd & Montclair Av"}, "57975": {"latitude": 37.89108, "code": "57975", "longitude": -122.28315, "id": "0200720", "name": "Solano Av & Ventura Av"}, "50633": {"latitude": 37.8555699, "code": "50633", "longitude": -122.2925699, "id": "0300270", "name": "7th St & Grayson St"}, "54399": {"latitude": 37.7347999, "code": "54399", "longitude": -122.16325, "id": "1501370", "name": "E 14th St & Broadmoor Blvd"}, "55650": {"latitude": 37.8122299, "code": "55650", "longitude": -122.2729799, "id": "1016380", "name": "Martin Luther King Jr Way & W Grand Av"}, "54375": {"latitude": 37.8817285, "code": "54375", "longitude": -122.2614698, "id": "0302470", "name": "Euclid Av & Hawthorne Ter"}, "55304": {"latitude": 37.87621, "code": "55304", "longitude": -122.2604499, "id": "0302570", "name": "Euclid Av & Ridge Rd"}, "54254": {"latitude": 37.85079, "code": "54254", "longitude": -122.2708499, "id": "0300380", "name": "Adeline St & Fairview St"}, "54393": {"latitude": 37.8647599, "code": "54393", "longitude": -122.3115399, "id": "0305950", "name": "University Av & Marina Blvd"}, "51331": {"latitude": 37.81805, "code": "51331", "longitude": -122.26733, "id": "1020060", "name": "Telegraph Av & 29th St"}, "59859": {"latitude": 37.8803499, "code": "59859", "longitude": -122.24674, "id": "1007140", "name": "Centennial Dr & Lawrence Hall Of Science"}, "52297": {"latitude": 37.88588, "code": "52297", "longitude": -122.2666399, "id": "0305250", "name": "Spruce St & Eunice St"}, "59535": {"latitude": 37.76613, "code": "59535", "longitude": -122.2019299, "id": "1008600", "name": "International Blvd & 57th Av"}, "59533": {"latitude": 37.7471599, "code": "59533", "longitude": -122.17241, "id": "1008850", "name": "International Blvd & 94th Av"}, "56656": {"latitude": 37.84572, "code": "56656", "longitude": -122.2519899, "id": "1007540", "name": "College Av & Oak Grove Av (Opp. Claremont"}, "56654": {"latitude": 37.87635, "code": "56654", "longitude": -122.2689999, "id": "0305090", "name": "Shattuck Av & Virginia St"}, "59925": {"latitude": 37.84023, "code": "59925", "longitude": -122.2742299, "id": "1015860", "name": "Market St & 56th St"}, "56659": {"latitude": 37.78522, "code": "56659", "longitude": -122.2391399, "id": "1008380", "name": "International Blvd & 21st Av"}, "52355": {"latitude": 37.8677299, "code": "52355", "longitude": -122.2997299, "id": "0305770", "name": "University Av & 4th St"}, "56300": {"latitude": 37.88858, "code": "56300", "longitude": -122.2724999, "id": "0305430", "name": "Sutter St & Hopkins St"}, "50229": {"latitude": 37.8645899, "code": "50229", "longitude": -122.2702899, "id": "0303060", "name": "Haste St & Milvia St"}, "58455": {"latitude": 37.8628099, "code": "58455", "longitude": -122.31728, "id": "0304730", "name": "Seawall Dr & University Av"}, "55970": {"latitude": 37.85541, "code": "55970", "longitude": -122.2926099, "id": "0300260", "name": "7th St & Grayson St"}, "55977": {"latitude": 37.8301299, "code": "55977", "longitude": -122.26825, "id": "1016160", "name": "Martin Luther King Jr Way & 40th St"}, "54373": {"latitude": 37.9018099, "code": "54373", "longitude": -122.26728, "id": "0302460", "name": "Euclid Av & Grizzly Peak Blvd"}, "56587": {"latitude": 37.89396, "code": "56587", "longitude": -122.26377, "id": "0302550", "name": "Euclid Av & Regal Rd"}, "50226": {"latitude": 37.8903399, "code": "50226", "longitude": -122.25226, "id": "0303010", "name": "Grizzly Peak Blvd & Shasta Rd"}, "50227": {"latitude": 37.88123, "code": "50227", "longitude": -122.2615199, "id": "0302610", "name": "Euclid Av & Vine Ln"}, "57658": {"latitude": 37.85579, "code": "57658", "longitude": -122.26217, "id": "0300840", "name": "Ashby Av & Deakin St"}, "57659": {"latitude": 37.8758399, "code": "57659", "longitude": -122.2896199, "id": "0301280", "name": "Cedar St & Belvedere Av"}, "57713": {"latitude": 37.8625899, "code": "57713", "longitude": -122.2785699, "id": "0302090", "name": "Dwight Way & California St"}, "57651": {"latitude": 37.8857699, "code": "57651", "longitude": -122.25451, "id": "0301230", "name": "Campus Dr & Glendale Av"}, "57652": {"latitude": 37.88669, "code": "57652", "longitude": -122.25485, "id": "0301240", "name": "Campus Dr & Quail Av"}, "57653": {"latitude": 37.88764, "code": "57653", "longitude": -122.25449, "id": "0301250", "name": "Campus Dr & Shasta Rd"}, "57655": {"latitude": 37.85859, "code": "57655", "longitude": -122.2532699, "id": "0301780", "name": "College Av & Russell St"}, "52222": {"latitude": 37.7763999, "code": "52222", "longitude": -122.22355, "id": "1030810", "name": "International Blvd & 34th Av"}, "52223": {"latitude": 37.86677, "code": "52223", "longitude": -122.25404, "id": "0301730", "name": "College Av & Haste St"}, "52220": {"latitude": 37.8132499, "code": "52220", "longitude": -122.2687999, "id": "1020020", "name": "Telegraph Av & 24th St"}, "51105": {"latitude": 37.8681599, "code": "51105", "longitude": -122.2974099, "id": "0305800", "name": "University Av & 6th St"}, "55572": {"latitude": 37.7440299, "code": "55572", "longitude": -122.17045, "id": "1030770", "name": "International Blvd & 98th Av"}, "56277": {"latitude": 37.9043099, "code": "56277", "longitude": -122.26976, "id": "0305280", "name": "Spruce St & Grizzly Peak Blvd"}, "55570": {"latitude": 37.7998999, "code": "55570", "longitude": -122.26405, "id": "1000520", "name": "12th St & Oak St"}, "51155": {"latitude": 37.808, "code": "51155", "longitude": -122.26876, "id": "1006440", "name": "Broadway & 19th St (19th St BART Station)"}, "51154": {"latitude": 37.75339, "code": "51154", "longitude": -122.1773099, "id": "1008790", "name": "International Blvd & 85th Av"}, "56377": {"latitude": 37.9043799, "code": "56377", "longitude": -122.2703599, "id": "0306250", "name": "Spruce St & Grizzly Peak Blvd"}, "56006": {"latitude": 37.8235099, "code": "56006", "longitude": -122.2701099, "id": "1016110", "name": "Martin Luther King Jr Way & 34th St"}, "56007": {"latitude": 37.8435199, "code": "56007", "longitude": -122.2615799, "id": "1020290", "name": "Telegraph Av & 58th St"}, "56610": {"latitude": 37.8304799, "code": "56610", "longitude": -122.2831199, "id": "0600040", "name": "40th St & Harlan St"}, "56783": {"latitude": 37.8323699, "code": "56783", "longitude": -122.2637399, "id": "1020200", "name": "Telegraph Av & 44th St"}, "53880": {"latitude": 37.85353, "code": "53880", "longitude": -122.27667, "id": "0300770", "name": "Ashby Av & California St"}, "55002": {"latitude": 37.84528, "code": "55002", "longitude": -122.26108, "id": "1030980", "name": "Telegraph Av & 59th St."}, "55275": {"latitude": 37.8173199, "code": "55275", "longitude": -122.2716799, "id": "1016060", "name": "Martin Luther King Jr Way & 27th St"}, "50255": {"latitude": 37.85844, "code": "50255", "longitude": -122.26682, "id": "0305020", "name": "Shattuck Av & Stuart St"}, "50705": {"latitude": 37.8862899, "code": "50705", "longitude": -122.2624999, "id": "0302440", "name": "Euclid Av & Eunice St"}, "58528": {"latitude": 37.8422299, "code": "58528", "longitude": -122.27446, "id": "1015930", "name": "Market St & Arlington Av"}, "58484": {"latitude": 37.86272, "code": "58484", "longitude": -122.27666, "id": "0302190", "name": "Dwight Way & Mc Gee Av"}, "52599": {"latitude": 37.8521499, "code": "52599", "longitude": -122.28715, "id": "0301020", "name": "Ashby Av & San Pablo Av"}, "52455": {"latitude": 37.7640199, "code": "52455", "longitude": -122.19697, "id": "1008640", "name": "International Blvd & 62nd Av"}, "53339": {"latitude": 37.87854, "code": "53339", "longitude": -122.2692299, "id": "0304820", "name": "Shattuck Av & Cedar St"}, "57156": {"latitude": 37.8764099, "code": "57156", "longitude": -122.2852799, "id": "0301270", "name": "Cedar St & Acton St"}, "52592": {"latitude": 37.8524699, "code": "52592", "longitude": -122.2662199, "id": "0305110", "name": "Shattuck Av & Woolsey St"}, "55188": {"latitude": 37.7679699, "code": "55188", "longitude": -122.20533, "id": "1008590", "name": "International Blvd & 54th Av"}, "52774": {"latitude": 37.82437, "code": "52774", "longitude": -122.26563, "id": "1020120", "name": "Telegraph Av & 36th St"}, "50958": {"latitude": 37.8063199, "code": "50958", "longitude": -122.2700799, "id": "9902070", "name": "Broadway & 17th St (19th St BART Station)"}, "55180": {"latitude": 37.88359, "code": "55180", "longitude": -122.27087, "id": "0303190", "name": "Henry St & Berryman St"}, "50955": {"latitude": 37.8470299, "code": "50955", "longitude": -122.25197, "id": "1007460", "name": "College Av & Chabot Rd"}, "54454": {"latitude": 37.86376, "code": "54454", "longitude": -122.2674999, "id": "0304920", "name": "Shattuck Av & Dwight Way"}, "55059": {"latitude": 37.8188399, "code": "55059", "longitude": -122.2712999, "id": "1016070", "name": "Martin Luther King Jr Way & 29th St"}, "51579": {"latitude": 37.8678595, "code": "51579", "longitude": -122.2586435, "id": "9903600", "name": "Durant Av & Telegragh St"}, "55115": {"latitude": 37.88293, "code": "55115", "longitude": -122.30291, "id": "0200770", "name": "Red Oak Av & Kinkead Way"}, "51573": {"latitude": 37.8701799, "code": "51573", "longitude": -122.2846499, "id": "9903580", "name": "University Av & Acton St"}, "56955": {"latitude": 37.82431, "code": "56955", "longitude": -122.2091299, "id": "1017100", "name": "Mountain Blvd & Snake Rd"}, "54855": {"latitude": 37.83061, "code": "54855", "longitude": -122.28132, "id": "0600010", "name": "40th St & Emery St"}, "55575": {"latitude": 37.8294999, "code": "55575", "longitude": -122.26451, "id": "1020150", "name": "Telegraph Av & 40th St"}, "51574": {"latitude": 37.87062, "code": "51574", "longitude": -122.27945, "id": "9903590", "name": "University Av & California St"}, "50419": {"latitude": 37.9088799, "code": "50419", "longitude": -122.26469, "id": "9900520", "name": "Canon Dr & Environmental Center"}, "57433": {"latitude": 37.80139, "code": "57433", "longitude": -122.24616, "id": "1017550", "name": "Park Blvd & Ivy Dr"}, "50977": {"latitude": 37.86248, "code": "50977", "longitude": -122.27849, "id": "0302100", "name": "Dwight Way & California St"}, "53777": {"latitude": 37.7619199, "code": "53777", "longitude": -122.19256, "id": "1008920", "name": "International Blvd & Havenscourt Blvd"}, "53775": {"latitude": 37.8220999, "code": "53775", "longitude": -122.2704699, "id": "1016370", "name": "Martin Luther King Jr Way & Brockhurst St"}, "53773": {"latitude": 37.83941, "code": "53773", "longitude": -122.2698399, "id": "1016270", "name": "Martin Luther King Jr Way & 55th St"}, "58788": {"latitude": 37.8294499, "code": "58788", "longitude": -122.26863, "id": "1030040", "name": "Mlk Jr Way & 40th St"}, "51900": {"latitude": 37.87121, "code": "51900", "longitude": -122.27489, "id": "0305930", "name": "University Av & Grant St"}, "53823": {"latitude": 37.90131, "code": "53823", "longitude": -122.26951, "id": "0305220", "name": "Spruce St & #533"}, "52955": {"latitude": 37.85682, "code": "52955", "longitude": -122.2668099, "id": "0305010", "name": "Shattuck Av & Russell St"}, "53653": {"latitude": 37.83535, "code": "53653", "longitude": -122.2732199, "id": "1015800", "name": "Market St & 46th St"}, "51377": {"latitude": 37.8606699, "code": "51377", "longitude": -122.2671699, "id": "0304870", "name": "Shattuck Av & Derby St"}, "54688": {"latitude": 37.84598, "code": "54688", "longitude": -122.27285, "id": "1019850", "name": "Stanford Av & King St"}, "55454": {"latitude": 37.8817, "code": "55454", "longitude": -122.2703499, "id": "0305130", "name": "Shattuck Pl & Rose St"}, "54513": {"latitude": 37.89812, "code": "54513", "longitude": -122.2622899, "id": "0303050", "name": "Grizzly Peak Blvd & Sunset Ln"}, "55456": {"latitude": 37.8745899, "code": "55456", "longitude": -122.2642299, "id": "0303100", "name": "Hearst Av & Arch St"}, "55450": {"latitude": 37.7699799, "code": "55450", "longitude": -122.20958, "id": "1008540", "name": "International Blvd & 48th Av"}, "55452": {"latitude": 37.8639099, "code": "55452", "longitude": -122.26722, "id": "0304910", "name": "Shattuck Av & Dwight Way"}, "55453": {"latitude": 37.8522999, "code": "55453", "longitude": -122.26603, "id": "0305100", "name": "Shattuck Av & Woolsey St"}, "51076": {"latitude": 37.8688299, "code": "51076", "longitude": -122.25893, "id": "9902380", "name": "Bancroft Way & Telegraph Av"}, "51074": {"latitude": 37.8688499, "code": "51074", "longitude": -122.2587199, "id": "9902370", "name": "Bancroft Way & Telegraph Av"}, "50177": {"latitude": 37.8535899, "code": "50177", "longitude": -122.2772099, "id": "0300760", "name": "Ashby Av & California St"}, "51072": {"latitude": 37.8738699, "code": "51072", "longitude": -122.26794, "id": "9902350", "name": "Hearst Av & Shattuck Av"}, "55752": {"latitude": 37.73486, "code": "55752", "longitude": -122.1635699, "id": "1501560", "name": "E 14th St & W Broadmoor Blvd"}, "55935": {"latitude": 37.86193, "code": "55935", "longitude": -122.2672799, "id": "0304990", "name": "Shattuck Av & Parker St"}, "54700": {"latitude": 37.8079199, "code": "54700", "longitude": -122.2690899, "id": "1006430", "name": "Broadway & 19th St (19th St BART Station)"}, "55528": {"latitude": 37.7892, "code": "55528", "longitude": -122.2459099, "id": "1008310", "name": "International Blvd & 14th Av"}, "55529": {"latitude": 37.85531, "code": "55529", "longitude": -122.2599299, "id": "0305620", "name": "Telegraph Av & Webster St"}, "52252": {"latitude": 37.84911, "code": "52252", "longitude": -122.27109, "id": "0300320", "name": "Adeline St & Alcatraz Av"}, "52250": {"latitude": 37.86307, "code": "52250", "longitude": -122.2586, "id": "0305550", "name": "Telegraph Av & Parker St"}, "55249": {"latitude": 37.8618799, "code": "55249", "longitude": -122.2840099, "id": "0302250", "name": "Dwight Way & Valley St"}, "58710": {"latitude": 37.88712, "code": "58710", "longitude": -122.2514699, "id": "0302840", "name": "Grizzly Peak Blvd & Arcade Av"}, "58234": {"latitude": 37.85552, "code": "58234", "longitude": -122.26429, "id": "0301080", "name": "Ashby Av & Wheeler St"}, "54333": {"latitude": 37.77213, "code": "54333", "longitude": -122.2146399, "id": "1030700", "name": "International Blvd & High St"}, "54334": {"latitude": 37.8226099, "code": "54334", "longitude": -122.2663599, "id": "1020110", "name": "Telegraph Av & 34th St"}, "51199": {"latitude": 37.85881, "code": "51199", "longitude": -122.25314, "id": "0301770", "name": "College Av & Russell St"}, "55990": {"latitude": 37.8855299, "code": "55990", "longitude": -122.3013, "id": "0200200", "name": "Ohlongitudee Dr & #956"}, "51194": {"latitude": 37.90684, "code": "51194", "longitude": -122.2717699, "id": "9900950", "name": "Purdue Av & Beloit Av"}, "51197": {"latitude": 37.8803582, "code": "51197", "longitude": -122.2670298, "id": "0303960", "name": "Oxford St & Vine St"}, "52922": {"latitude": 37.8560299, "code": "52922", "longitude": -122.25289, "id": "0301800", "name": "College Av & Webster St"}, "54230": {"latitude": 37.87643, "code": "54230", "longitude": -122.2667199, "id": "0303970", "name": "Oxford St & Virginia St"}, "55237": {"latitude": 37.80465, "code": "55237", "longitude": -122.2312899, "id": "1017560", "name": "Park Blvd & Kingsley St"}, "52882": {"latitude": 37.76854, "code": "52882", "longitude": -122.2071399, "id": "1008570", "name": "International Blvd & 52nd Av"}, "53005": {"latitude": 37.87732, "code": "53005", "longitude": -122.2949299, "id": "0304640", "name": "San Pablo Av & Page St"}, "55988": {"latitude": 37.8715496, "code": "55988", "longitude": -122.2726723, "id": "0305990", "name": "University Av & Martin Luther King Jr Way"}, "56500": {"latitude": 37.7833799, "code": "56500", "longitude": -122.23571, "id": "1008400", "name": "International Blvd & 23rd Av"}, "56507": {"latitude": 37.80298, "code": "56507", "longitude": -122.23743, "id": "1017420", "name": "Park Blvd & E 28th St"}, "51617": {"latitude": 37.86965, "code": "51617", "longitude": -122.28696, "id": "9903740", "name": "University Av & Bonar St"}, "51614": {"latitude": 37.8507499, "code": "51614", "longitude": -122.2513699, "id": "9903730", "name": "Claremont Av & Mystic St"}, "59444": {"latitude": 37.80296, "code": "59444", "longitude": -122.2744599, "id": "1000370", "name": "11th St & Clay St"}, "59911": {"latitude": 37.7990599, "code": "59911", "longitude": -122.25651, "id": "1001220", "name": "1st Av & International Blvd"}, "59918": {"latitude": 37.8529099, "code": "59918", "longitude": -122.26954, "id": "0300360", "name": "Adeline St & Ashby BART Station"}, "56980": {"latitude": 37.8616099, "code": "56980", "longitude": -122.2860799, "id": "0302080", "name": "Dwight Way & Bonar St"}, "55885": {"latitude": 37.83612, "code": "55885", "longitude": -122.26248, "id": "1020240", "name": "Telegraph Av & 49th St"}, "53077": {"latitude": 37.88303, "code": "53077", "longitude": -122.2489599, "id": "0303000", "name": "Grizzly Peak Blvd & Senior Av"}, "51997": {"latitude": 37.8659799, "code": "51997", "longitude": -122.25141, "id": "0304030", "name": "Piedmont Av & Dwight Way"}, "55807": {"latitude": 37.85855, "code": "55807", "longitude": -122.2936599, "id": "0300310", "name": "7th St & Parker St"}, "55805": {"latitude": 37.73596, "code": "55805", "longitude": -122.1643899, "id": "1501410", "name": "E 14th St & Durant Av"}, "59567": {"latitude": 37.81001, "code": "59567", "longitude": -122.2727699, "id": "1001290", "name": "Thomas L Berkley Way (20th St) & San Pablo"}, "51851": {"latitude": 37.8403599, "code": "51851", "longitude": -122.2620199, "id": "1020280", "name": "Telegraph Av & 55th St"}, "57661": {"latitude": 37.8961699, "code": "57661", "longitude": -122.26042, "id": "0302910", "name": "Grizzly Peak Blvd & Forest Ln"}, "54589": {"latitude": 37.87572, "code": "54589", "longitude": -122.28981, "id": "0301290", "name": "Cedar St & Belvedere Av"}, "57662": {"latitude": 37.8916499, "code": "57662", "longitude": -122.255, "id": "0302990", "name": "Grizzly Peak Blvd & Muir Way"}, "57665": {"latitude": 37.8087499, "code": "57665", "longitude": -122.2193299, "id": "1017490", "name": "Park Blvd & Everett Av"}, "57666": {"latitude": 37.7725799, "code": "57666", "longitude": -122.21506, "id": "1030730", "name": "International Blvd & High St"}, "56615": {"latitude": 37.89095, "code": "56615", "longitude": -122.28524, "id": "0200650", "name": "Solano Av & Peralta Av"}, "59963": {"latitude": 37.80265, "code": "59963", "longitude": -122.23902, "id": "1017340", "name": "Park Blvd & 8th Av"}, "51101": {"latitude": 37.8551099, "code": "51101", "longitude": -122.26641, "id": "0304810", "name": "Shattuck Av & Ashby Av"}, "59968": {"latitude": 37.8568199, "code": "59968", "longitude": -122.2553599, "id": "0300870", "name": "Ashby Av & Hillegass Av"}, "57740": {"latitude": 37.8884199, "code": "57740", "longitude": -122.27227, "id": "0305420", "name": "Sutter St & Hopkins St"}, "57566": {"latitude": 37.8712899, "code": "57566", "longitude": -122.26655, "id": "0300315", "name": "Addison St & Oxford St"}, "52102": {"latitude": 37.8844, "code": "52102", "longitude": -122.2628099, "id": "0302310", "name": "Euclid Av & Bayview Pl"}, "52105": {"latitude": 37.8843899, "code": "52105", "longitude": -122.26265, "id": "0302320", "name": "Euclid Av & Bayview Pl"}, "50857": {"latitude": 37.8845699, "code": "50857", "longitude": -122.29779, "id": "9901690", "name": "Monroe St & San Pablo Ave"}, "56910": {"latitude": 37.8590399, "code": "56910", "longitude": -122.2677899, "id": "0300420", "name": "Adeline St & Ward St"}, "51538": {"latitude": 37.8695399, "code": "51538", "longitude": -122.26746, "id": "9903520", "name": "Allston Way & Shattuck Av"}, "50755": {"latitude": 37.7708199, "code": "50755", "longitude": -122.21136, "id": "1008530", "name": "International Blvd & 46th Av"}, "50750": {"latitude": 37.89117, "code": "50750", "longitude": -122.28154, "id": "0305170", "name": "Solano Av & Ensenada Av"}, "50607": {"latitude": 37.8742299, "code": "50607", "longitude": -122.26522, "id": "0306750", "name": "Hearst Av & Spruce St"}, "57100": {"latitude": 37.8005399, "code": "57100", "longitude": -122.2482499, "id": "1017630", "name": "Park Blvd & Newton Av"}, "57060": {"latitude": 37.80176, "code": "57060", "longitude": -122.24385, "id": "1017610", "name": "Park Blvd & Montclair Av"}, "53599": {"latitude": 37.7789803, "code": "53599", "longitude": -122.2286706, "id": "1008440", "name": "International Blvd & 29th Av"}, "59875": {"latitude": 37.8567, "code": "59875", "longitude": -122.25524, "id": "0300880", "name": "Ashby Av & Hillegass Av"}, "58558": {"latitude": 37.87443, "code": "58558", "longitude": -122.26408, "id": "0306550", "name": "Hearst Av & Arch St"}, "58660": {"latitude": 37.8638299, "code": "58660", "longitude": -122.3138199, "id": "0305860", "name": "University Av & Bait Shop"}, "58847": {"latitude": 37.8941399, "code": "58847", "longitude": -122.25826, "id": "0302960", "name": "Grizzly Peak Blvd & latitudeham Ln"}, "58666": {"latitude": 37.78138, "code": "58666", "longitude": -122.2328099, "id": "1008420", "name": "International Blvd & 26th Av"}, "58667": {"latitude": 37.8533299, "code": "58667", "longitude": -122.29177, "id": "0300290", "name": "7th St & Heinz Av"}, "57082": {"latitude": 37.88042, "code": "57082", "longitude": -122.24665, "id": "0306510", "name": "Centennial Dr & Parking Lot"}, "57088": {"latitude": 37.8564099, "code": "57088", "longitude": -122.2597899, "id": "0305470", "name": "Telegraph Av & Ashby Av"}, "55388": {"latitude": 37.79936, "code": "55388", "longitude": -122.25054, "id": "1017390", "name": "4th Av & E 18th St"}, "59213": {"latitude": 37.8961512, "code": "59213", "longitude": -122.2557902, "id": "0301550", "name": "Central Park Dr & Wildcat Canyon Rd"}, "55066": {"latitude": 37.8007799, "code": "55066", "longitude": -122.26633, "id": "1000490", "name": "12th St & Jackson St"}, "58998": {"latitude": 37.8061999, "code": "58998", "longitude": -122.2251599, "id": "1017530", "name": "Park Blvd & Hampel St"}, "50707": {"latitude": 37.7574999, "code": "50707", "longitude": -122.18327, "id": "1008720", "name": "International Blvd & 78th Av"}, "50529": {"latitude": 37.8854399, "code": "50529", "longitude": -122.30018, "id": "0200780", "name": "Jackson St & Ohlongitudee St"}, "50911": {"latitude": 37.85432, "code": "50911", "longitude": -122.24824, "id": "0301610", "name": "Claremont Av & The Uplands"}, "56116": {"latitude": 37.8444399, "code": "56116", "longitude": -122.26499, "id": "1019190", "name": "Shattuck Av & 59th St"}, "55415": {"latitude": 37.84213, "code": "55415", "longitude": -122.2648499, "id": "1019250", "name": "Shattuck Av & Aileen St"}, "56666": {"latitude": 37.8039799, "code": "56666", "longitude": -122.2714899, "id": "1006360", "name": "Broadway & 14th St (12th St BART Station)"}, "55364": {"latitude": 37.8993599, "code": "55364", "longitude": -122.26517, "id": "0302950", "name": "Grizzly Peak Blvd & Keeler Av"}, "54002": {"latitude": 37.8044, "code": "54002", "longitude": -122.22959, "id": "1017450", "name": "Park Blvd & E 38th St"}, "51399": {"latitude": 37.7877099, "code": "51399", "longitude": -122.24295, "id": "1008320", "name": "International Blvd & 17th Av"}, "54667": {"latitude": 37.7329499, "code": "54667", "longitude": -122.16188, "id": "1501530", "name": "E 14th St & Sunnyside Dr"}, "55204": {"latitude": 37.87609, "code": "55204", "longitude": -122.28733, "id": "0301330", "name": "Cedar St & Cedar Rose Park"}, "56144": {"latitude": 37.8751999, "code": "56144", "longitude": -122.29376, "id": "0306480", "name": "Cedar St & San Pablo Av"}, "58200": {"latitude": 37.8021999, "code": "58200", "longitude": -122.27, "id": "1030740", "name": "12th St & Webster St"}, "56466": {"latitude": 37.7362299, "code": "56466", "longitude": -122.1643, "id": "1008880", "name": "International Blvd & Durant Av"}, "51244": {"latitude": 37.8662899, "code": "51244", "longitude": -122.25861, "id": "0305530", "name": "Telegraph Av & Haste St"}, "51711": {"latitude": 37.7607699, "code": "51711", "longitude": -122.19013, "id": "1008680", "name": "International Blvd & 69th Av"}, "50144": {"latitude": 37.86748, "code": "50144", "longitude": -122.2519899, "id": "0304010", "name": "Piedmont Av & Channing Way"}, "54245": {"latitude": 37.7738799, "code": "54245", "longitude": -122.2178, "id": "1008500", "name": "International Blvd & 40th Av"}, "55664": {"latitude": 37.8645399, "code": "55664", "longitude": -122.25027, "id": "0306140", "name": "Warring St & Parker St"}, "59959": {"latitude": 37.8454799, "code": "59959", "longitude": -122.25182, "id": "1007530", "name": "College Av & Miles Av (Claremont Middle Sc"}, "51096": {"latitude": 37.8694899, "code": "51096", "longitude": -122.26765, "id": "9902480", "name": "Allston Way & Shattuck Av"}, "55840": {"latitude": 37.7994399, "code": "55840", "longitude": -122.26288, "id": "1000460", "name": "12th St & Fallongitude St"}, "52288": {"latitude": 37.79973, "code": "52288", "longitude": -122.2522999, "id": "1009130", "name": "E 18th St & 3rd Av"}, "56646": {"latitude": 37.83846, "code": "56646", "longitude": -122.26203, "id": "1020420", "name": "Telegraph Av & Claremont Av"}, "59954": {"latitude": 37.85541, "code": "59954", "longitude": -122.2666199, "id": "0304800", "name": "Shattuck Av & Ashby Av"}, "58337": {"latitude": 37.8939799, "code": "58337", "longitude": -122.2639299, "id": "0302560", "name": "Euclid Av & Regal Rd"}, "58444": {"latitude": 37.79216, "code": "58444", "longitude": -122.2498999, "id": "1008290", "name": "International Blvd & 10th Av"}, "58330": {"latitude": 37.8577899, "code": "58330", "longitude": -122.2595899, "id": "0305580", "name": "Telegraph Av & Russell St"}, "54344": {"latitude": 37.88441, "code": "54344", "longitude": -122.2972099, "id": "0200430", "name": "San Pablo Av & Monroe St"}, "55967": {"latitude": 37.871, "code": "55967", "longitude": -122.2528299, "id": "0305750", "name": "Piedmont Av & UC Faculty Club"}, "55689": {"latitude": 37.74134, "code": "55689", "longitude": -122.1684399, "id": "1008250", "name": "International Blvd & 102nd Av"}, "54065": {"latitude": 37.8840885, "code": "54065", "longitude": -122.2663298, "id": "0305260", "name": "Spruce St & Glen Av"}, "58685": {"latitude": 37.82691, "code": "58685", "longitude": -122.26905, "id": "1016400", "name": "Martin Luther King Jr Way & W Macarthur Bl"}, "56796": {"latitude": 37.8555899, "code": "56796", "longitude": -122.2648399, "id": "0301070", "name": "Ashby Av & Wheeler St"}, "56795": {"latitude": 37.8564094, "code": "56795", "longitude": -122.2576242, "id": "0300800", "name": "Ashby Av & Colby St"}, "58688": {"latitude": 37.7851999, "code": "58688", "longitude": -122.23875, "id": "1008370", "name": "International Blvd & 21st Av"}, "58689": {"latitude": 37.89673, "code": "58689", "longitude": -122.2612099, "id": "0302900", "name": "Grizzly Peak Blvd & Forest Ln"}, "55564": {"latitude": 37.7989599, "code": "55564", "longitude": -122.25697, "id": "1001230", "name": "1st Av & International Blvd"}, "51922": {"latitude": 37.8913299, "code": "51922", "longitude": -122.28179, "id": "0305160", "name": "Solano Av & Ensenada Av"}, "55568": {"latitude": 37.7955, "code": "55568", "longitude": -122.2536799, "id": "1030660", "name": "International Blvd & 5th Av"}, "51668": {"latitude": 37.8243499, "code": "51668", "longitude": -122.20891, "id": "1017110", "name": "Mountain Blvd & Snake Rd"}, "57522": {"latitude": 37.8496399, "code": "57522", "longitude": -122.26584, "id": "1019270", "name": "Shattuck Av & Alcatraz Av"}, "57523": {"latitude": 37.8926799, "code": "57523", "longitude": -122.26491, "id": "0302420", "name": "Euclid Av & Easter Way"}, "59555": {"latitude": 37.8692899, "code": "59555", "longitude": -122.2551299, "id": "0301120", "name": "Bancroft Way & College Av"}, "59004": {"latitude": 37.8687899, "code": "59004", "longitude": -122.2942999, "id": "0305810", "name": "University Av & 9th St"}, "59553": {"latitude": 37.75752, "code": "59553", "longitude": -122.1837899, "id": "1008710", "name": "International Blvd & 78th Av"}, "55860": {"latitude": 37.8919799, "code": "55860", "longitude": -122.2671399, "id": "0305400", "name": "Spruce St & Santa Barbara Rd"}, "57220": {"latitude": 37.85776, "code": "57220", "longitude": -122.26773, "id": "0300390", "name": "Adeline St & Oregon St"}, "58432": {"latitude": 37.8762199, "code": "58432", "longitude": -122.2872499, "id": "0301320", "name": "Cedar St & Cedar Rose Park"}, "55501": {"latitude": 37.8799, "code": "55501", "longitude": -122.2957699, "id": "0304540", "name": "San Pablo Av & Gilman St"}, "50242": {"latitude": 37.8384399, "code": "50242", "longitude": -122.29312, "id": "0601160", "name": "Shellmound St & Powell St"}, "58533": {"latitude": 37.8834, "code": "58533", "longitude": -122.2711099, "id": "0303200", "name": "Henry St & Berryman St"}, "59854": {"latitude": 37.8858499, "code": "59854", "longitude": -122.24916, "id": "0302930", "name": "Grizzly Peak Blvd & Hill Rd"}, "57225": {"latitude": 37.8765199, "code": "57225", "longitude": -122.26875, "id": "0305080", "name": "Shattuck Av & Virginia St"}, "58583": {"latitude": 37.82046, "code": "58583", "longitude": -122.27068, "id": "1016100", "name": "Martin Luther King Jr Way & 31st St"}, "52445": {"latitude": 37.77369, "code": "52445", "longitude": -122.2179199, "id": "1008510", "name": "International Blvd & 40th Av"}, "57228": {"latitude": 37.85218, "code": "57228", "longitude": -122.24995, "id": "0301590", "name": "Claremont Av & Eton Ct"}, "50888": {"latitude": 37.8900699, "code": "50888", "longitude": -122.29875, "id": "0200450", "name": "San Pablo Av & Solano Av"}, "50966": {"latitude": 37.8768499, "code": "50966", "longitude": -122.26045, "id": "0302500", "name": "Euclid Av & Le Conte Av"}, "55425": {"latitude": 37.8381899, "code": "55425", "longitude": -122.2623199, "id": "1020260", "name": "Telegraph Av & 52nd St"}, "52662": {"latitude": 37.85321, "code": "52662", "longitude": -122.27923, "id": "0300990", "name": "Ashby Av & Sacramento St"}, "51445": {"latitude": 37.74268, "code": "51445", "longitude": -122.1691, "id": "1008240", "name": "International Blvd & 100th Av"}, "55185": {"latitude": 37.8446, "code": "55185", "longitude": -122.2651899, "id": "1019180", "name": "Shattuck Av & 59th St"}, "52667": {"latitude": 37.87533, "code": "52667", "longitude": -122.2602399, "id": "0302480", "name": "Euclid Av & Hearst Av"}, "55100": {"latitude": 37.8808299, "code": "55100", "longitude": -122.29578, "id": "0304550", "name": "San Pablo Av & Gilman St"}, "50400": {"latitude": 37.8727699, "code": "50400", "longitude": -122.26598, "id": "0303940", "name": "Oxford St & University Av"}, "55745": {"latitude": 37.8269099, "code": "55745", "longitude": -122.2692599, "id": "1016410", "name": "Martin Luther King Jr Way & W Macarthur Bl"}, "57030": {"latitude": 37.81159, "code": "57030", "longitude": -122.21533, "id": "1017540", "name": "Park Blvd & Hollywood Av"}, "53760": {"latitude": 37.81009, "code": "53760", "longitude": -122.21697, "id": "1017380", "name": "Park Blvd & Dolores Av"}, "53008": {"latitude": 37.84409, "code": "53008", "longitude": -122.26125, "id": "1020300", "name": "Telegraph Av & 58th St"}, "59978": {"latitude": 37.8525999, "code": "59978", "longitude": -122.27005, "id": "0300350", "name": "Adeline St & Ashby BART Station"}, "54965": {"latitude": 37.8952699, "code": "54965", "longitude": -122.26898, "id": "0305340", "name": "Spruce St & Montrose Rd"}, "55559": {"latitude": 37.87019, "code": "55559", "longitude": -122.26773, "id": "0304840", "name": "Shattuck Sq & Center St (Berkeley BART Sta"}, "55738": {"latitude": 37.8585999, "code": "55738", "longitude": -122.29348, "id": "0300300", "name": "7th St & Parker St"}, "59876": {"latitude": 37.7532199, "code": "59876", "longitude": -122.1769, "id": "1030860", "name": "International Blvd & 86th Av"}, "58977": {"latitude": 37.8906899, "code": "58977", "longitude": -122.2934799, "id": "0200640", "name": "Solano Av & Masonic Av"}, "55730": {"latitude": 37.8905299, "code": "55730", "longitude": -122.2960199, "id": "0200600", "name": "Solano Av & Cornell Av"}, "55933": {"latitude": 37.8267399, "code": "55933", "longitude": -122.2652599, "id": "1020460", "name": "Telegraph Av & W Macarthur Blvd"}, "51697": {"latitude": 37.83335, "code": "51697", "longitude": -122.2936399, "id": "0601060", "name": "Shellmound St & Bay St"}, "54767": {"latitude": 37.86246, "code": "54767", "longitude": -122.2501999, "id": "0306130", "name": "Warring St & Derby St"}, "50666": {"latitude": 37.7814399, "code": "50666", "longitude": -122.23249, "id": "1008410", "name": "International Blvd & 26th Av"}, "50667": {"latitude": 37.85316, "code": "50667", "longitude": -122.28097, "id": "0300720", "name": "Ashby Av & Acton St"}, "50669": {"latitude": 37.8896299, "code": "50669", "longitude": -122.2531799, "id": "0304760", "name": "Shasta Rd & Miller Av"}, "51599": {"latitude": 37.84241, "code": "51599", "longitude": -122.2747699, "id": "1015920", "name": "Market St & Arlington Av"}, "55551": {"latitude": 37.87076, "code": "55551", "longitude": -122.26766, "id": "0306210", "name": "Shattuck Sq & Center St"}, "54440": {"latitude": 37.8847299, "code": "54440", "longitude": -122.3050099, "id": "0200760", "name": "Ohlongitudee Av & West End Way"}, "50105": {"latitude": 37.89302, "code": "50105", "longitude": -122.2675899, "id": "0305330", "name": "Spruce St & Marin Av"}, "54522": {"latitude": 37.7632299, "code": "54522", "longitude": -122.19531, "id": "1008660", "name": "International Blvd & 64th Av"}, "54655": {"latitude": 37.8681699, "code": "54655", "longitude": -122.2640799, "id": "0306530", "name": "Bancroft Way & Ellsworth St"}, "55558": {"latitude": 37.8094299, "code": "55558", "longitude": -122.26901, "id": "1030020", "name": "Thomas L Berkley Way (20th St) & Telegraph"}, "55922": {"latitude": 37.7792799, "code": "55922", "longitude": -122.22887, "id": "1008430", "name": "International Blvd & 29th Av"}, "54303": {"latitude": 37.87677, "code": "54303", "longitude": -122.26658, "id": "0303980", "name": "Oxford St & Virginia St"}, "55925": {"latitude": 37.86062, "code": "55925", "longitude": -122.29164, "id": "0302070", "name": "Dwight Way & 9th St"}, "54300": {"latitude": 37.8910999, "code": "54300", "longitude": -122.27622, "id": "0305200", "name": "Solano Av & The Alameda"}, "51915": {"latitude": 37.8907499, "code": "51915", "longitude": -122.2913299, "id": "0200670", "name": "Solano Av & Ramona Av"}, "55929": {"latitude": 37.88204, "code": "55929", "longitude": -122.2964499, "id": "0304590", "name": "San Pablo Av & Harrison St"}, "55555": {"latitude": 37.8694799, "code": "55555", "longitude": -122.2681299, "id": "0304790", "name": "Shattuck Av & Allston Way"}, "55557": {"latitude": 37.8031588, "code": "55557", "longitude": -122.2726269, "id": "1000430", "name": "12th St & Broadway (12th St BART Station)"}, "57578": {"latitude": 37.8300599, "code": "57578", "longitude": -122.2851799, "id": "0600060", "name": "40th St & Hollis St"}, "55258": {"latitude": 37.83357, "code": "55258", "longitude": -122.26315, "id": "1020220", "name": "Telegraph Av & 46th St"}, "52995": {"latitude": 37.86969, "code": "52995", "longitude": -122.2523899, "id": "0303990", "name": "Piedmont Av & Bancroft Way"}, "51173": {"latitude": 37.8745099, "code": "51173", "longitude": -122.26628, "id": "0303910", "name": "Oxford St & Hearst Av"}, "51627": {"latitude": 37.8312599, "code": "51627", "longitude": -122.27934, "id": "0601040", "name": "40th St & San Pablo Av"}, "59985": {"latitude": 37.86028, "code": "59985", "longitude": -122.26692, "id": "0304880", "name": "Shattuck Av & Derby St"}, "51188": {"latitude": 37.8445499, "code": "51188", "longitude": -122.25169, "id": "1007550", "name": "College Av & Rockridge BART Station"}, "51180": {"latitude": 37.86358, "code": "51180", "longitude": -122.27003, "id": "0302200", "name": "Dwight Way & Milvia St"}, "55636": {"latitude": 37.7607, "code": "55636", "longitude": -122.1904799, "id": "1008690", "name": "International Blvd & 69th Av"}, "56455": {"latitude": 37.8024199, "code": "56455", "longitude": -122.2419099, "id": "1017650", "name": "Park Blvd & Spruce St"}, "56454": {"latitude": 37.78745, "code": "56454", "longitude": -122.2428599, "id": "1008330", "name": "International Blvd & 17th Av"}, "54780": {"latitude": 37.8792, "code": "54780", "longitude": -122.2610899, "id": "0302370", "name": "Euclid Av & Cedar St"}, "51212": {"latitude": 37.89087, "code": "51212", "longitude": -122.28716, "id": "0200610", "name": "Solano Av & Curtis St"}, "56673": {"latitude": 37.80437, "code": "56673", "longitude": -122.23313, "id": "1017360", "name": "Park Blvd & Chatham Rd"}, "56672": {"latitude": 37.80227, "code": "56672", "longitude": -122.24184, "id": "1017330", "name": "Park Blvd & 7th Av"}, "56774": {"latitude": 37.83664, "code": "56774", "longitude": -122.2734899, "id": "1015820", "name": "Market St & 52nd St"}, "56858": {"latitude": 37.8551199, "code": "56858", "longitude": -122.26847, "id": "0300740", "name": "Ashby Av & Adeline St (Ashby BART Station)"}, "56679": {"latitude": 37.80726, "code": "56679", "longitude": -122.22238, "id": "1017510", "name": "Park Blvd & Glenfield Av"}, "56771": {"latitude": 37.83019, "code": "56771", "longitude": -122.28345, "id": "0600030", "name": "40th St & Harlan St"}, "56996": {"latitude": 37.82196, "code": "56996", "longitude": -122.27029, "id": "1016360", "name": "Martin Luther King Jr Way & Brockhurst St"}, "55955": {"latitude": 37.8572899, "code": "55955", "longitude": -122.25299, "id": "0301660", "name": "College Av & Ashby Av"}, "56288": {"latitude": 37.8472, "code": "56288", "longitude": -122.2521299, "id": "1007450", "name": "College Av & Chabot Rd"}, "58575": {"latitude": 37.8633699, "code": "58575", "longitude": -122.2723999, "id": "0302150", "name": "Dwight Way & Martin Luther King Jr Way"}, "53999": {"latitude": 37.7216099, "code": "53999", "longitude": -122.16039, "id": "1502820", "name": "San Leandro BART Station"}, "54014": {"latitude": 37.89919, "code": "54014", "longitude": -122.2650999, "id": "0302940", "name": "Grizzly Peak Blvd & Keeler Av"}, "55817": {"latitude": 37.85119, "code": "55817", "longitude": -122.29046, "id": "0300710", "name": "Ashby Av & 7th St"}, "58778": {"latitude": 37.8627488, "code": "58778", "longitude": -122.2501508, "id": "0306120", "name": "Warring St & Derby St"}, "52244": {"latitude": 37.86671, "code": "52244", "longitude": -122.2541999, "id": "0301740", "name": "College Av & Haste St"}, "56601": {"latitude": 37.8327299, "code": "56601", "longitude": -122.2677999, "id": "1016200", "name": "Martin Luther King Jr Way & 44th St"}, "53677": {"latitude": 37.8680599, "code": "53677", "longitude": -122.25182, "id": "0304020", "name": "Piedmont Av & Channing Way"}, "57778": {"latitude": 37.79797, "code": "57778", "longitude": -122.2564999, "id": "1008450", "name": "International Blvd & 2nd Av"}, "51136": {"latitude": 37.80866, "code": "51136", "longitude": -122.219, "id": "1017480", "name": "Park Blvd & Everett Av"}, "56606": {"latitude": 37.8880699, "code": "56606", "longitude": -122.29811, "id": "0200370", "name": "San Pablo Av & Buchanan St"}, "59995": {"latitude": 37.8028399, "code": "59995", "longitude": -122.27167, "id": "1030500", "name": "12th St & Broadway"}, "57772": {"latitude": 37.8004099, "code": "57772", "longitude": -122.25366, "id": "1009180", "name": "E 18th St & Athol Av"}, "51139": {"latitude": 37.8187699, "code": "51139", "longitude": -122.2101399, "id": "1017690", "name": "Park Blvd & Zion Lutheran Church & School"}, "51138": {"latitude": 37.8835499, "code": "51138", "longitude": -122.2517599, "id": "0301100", "name": "Avenida Dr & Queens Rd"}, "52323": {"latitude": 37.85416, "code": "52323", "longitude": -122.2527, "id": "0301820", "name": "College Av & Woolsey St"}, "59990": {"latitude": 37.7648799, "code": "59990", "longitude": -122.1993, "id": "1030710", "name": "International Blvd & Seminary Av"}, "57775": {"latitude": 37.7495099, "code": "57775", "longitude": -122.17415, "id": "1008830", "name": "International Blvd & 90th Av"}, "57774": {"latitude": 37.86418, "code": "57774", "longitude": -122.25371, "id": "0301760", "name": "College Av & Parker St"}, "57557": {"latitude": 37.8716999, "code": "57557", "longitude": -122.2728699, "id": "0305980", "name": "University Av & Martin Luther King Jr Way"}, "52502": {"latitude": 37.8847099, "code": "52502", "longitude": -122.24815, "id": "0302820", "name": "Grizzly Peak Blvd & #1411"}, "57555": {"latitude": 37.86742, "code": "57555", "longitude": -122.26142, "id": "0301990", "name": "Durant Av & Dana St"}, "52114": {"latitude": 37.8249999, "code": "52114", "longitude": -122.2697199, "id": "1016130", "name": "Martin Luther King Jr Way & 36th St"}, "57558": {"latitude": 37.839, "code": "57558", "longitude": -122.2739799, "id": "1015850", "name": "Market St & 55th St"}, "57001": {"latitude": 37.9007399, "code": "57001", "longitude": -122.2701399, "id": "0306270", "name": "Spruce St & #551"}, "52111": {"latitude": 37.8048019, "code": "52111", "longitude": -122.2708686, "id": "1006380", "name": "Broadway & 14th St"}, "51528": {"latitude": 37.8041699, "code": "51528", "longitude": -122.27489, "id": "9903480", "name": "12th & Clay St"}, "56517": {"latitude": 37.80321, "code": "56517", "longitude": -122.23541, "id": "1017440", "name": "Park Blvd & E 33rd St"}, "50411": {"latitude": 37.8210399, "code": "50411", "longitude": -122.2667899, "id": "1020090", "name": "Telegraph Av & 32nd St"}, "59300": {"latitude": 37.8562099, "code": "59300", "longitude": -122.2601399, "id": "0301050", "name": "Ashby Av & Telegraph Av"}, "52280": {"latitude": 37.8688299, "code": "52280", "longitude": -122.26616, "id": "0302650", "name": "Fulton St & Kittredge St"}, "50338": {"latitude": 37.8358299, "code": "50338", "longitude": -122.27312, "id": "1015810", "name": "Market St & 47th St"}, "50337": {"latitude": 37.9009499, "code": "50337", "longitude": -122.26636, "id": "0302890", "name": "Grizzly Peak Blvd & Creston Rd (North-West"}, "50444": {"latitude": 37.8721999, "code": "50444", "longitude": -122.26878, "id": "0306650", "name": "University Av & Shattuck Av"}, "52025": {"latitude": 37.8896299, "code": "52025", "longitude": -122.2626399, "id": "0302340", "name": "Euclid Av & Bret Harte Path"}, "57177": {"latitude": 37.81276, "code": "57177", "longitude": -122.2726, "id": "1016390", "name": "Martin Luther King Jr Way & W Grand Av"}, "59991": {"latitude": 37.81409, "code": "59991", "longitude": -122.26836, "id": "1030870", "name": "Telegraph Av & 24th St"}, "55592": {"latitude": 37.8037099, "code": "55592", "longitude": -122.2343099, "id": "1017590", "name": "Park Blvd & Macarthur Blvd (Oakland High S"}, "53377": {"latitude": 37.8503899, "code": "53377", "longitude": -122.26062, "id": "1020380", "name": "Telegraph Av & Alcatraz Av"}, "58117": {"latitude": 37.9006, "code": "58117", "longitude": -122.2674899, "id": "0302300", "name": "Euclid Av & Acacia Av"}, "55478": {"latitude": 37.73729, "code": "55478", "longitude": -122.1653799, "id": "1501360", "name": "E 14th St & Bristol Blvd"}, "58830": {"latitude": 37.8581999, "code": "58830", "longitude": -122.2453399, "id": "0301560", "name": "Claremont Av & Ashby Av"}, "54477": {"latitude": 37.8674795, "code": "54477", "longitude": -122.2995627, "id": "0305780", "name": "University Av & 4th St"}, "58835": {"latitude": 37.8629199, "code": "58835", "longitude": -122.2588799, "id": "0305540", "name": "Telegraph Av & Parker St"}, "57788": {"latitude": 37.8504699, "code": "57788", "longitude": -122.26039, "id": "1030550", "name": "Telegraph Av & Alcatraz Av"}, "57090": {"latitude": 37.81862, "code": "57090", "longitude": -122.20991, "id": "1017680", "name": "Park Blvd & Zion Lutheran Church & School"}, "52619": {"latitude": 37.7651299, "code": "52619", "longitude": -122.1993, "id": "1008990", "name": "International Blvd & Seminary Av"}, "58617": {"latitude": 37.83743, "code": "58617", "longitude": -122.2944899, "id": "0600300", "name": "Christie St & Lyons Restaurant"}, "52755": {"latitude": 37.73049, "code": "52755", "longitude": -122.1603099, "id": "1501340", "name": "E 14th St & Best Av (Dutton Av)"}, "55070": {"latitude": 37.86218, "code": "55070", "longitude": -122.28067, "id": "0302220", "name": "Dwight Way & Sacramento St"}, "51559": {"latitude": 37.81516, "code": "51559", "longitude": -122.27199, "id": "1016030", "name": "Martin Luther King Jr Way & 25th St"}, "55075": {"latitude": 37.75155, "code": "55075", "longitude": -122.1759999, "id": "1008800", "name": "International Blvd & 87th Av"}, "51555": {"latitude": 37.86451, "code": "51555", "longitude": -122.2586199, "id": "0305510", "name": "Telegraph Av & Dwight Way"}, "51005": {"latitude": 37.85992, "code": "51005", "longitude": -122.25903, "id": "0305600", "name": "Telegraph Av & Stuart St"}, "51004": {"latitude": 37.8324699, "code": "51004", "longitude": -122.2735799, "id": "1015760", "name": "Market St & 42nd St"}, "53974": {"latitude": 37.7567, "code": "53974", "longitude": -122.1820699, "id": "1031190", "name": "International Blvd & 80th St"}, "50927": {"latitude": 37.8310299, "code": "50927", "longitude": -122.27937, "id": "0600980", "name": "40th St & San Pablo Av"}, "54404": {"latitude": 37.8245899, "code": "54404", "longitude": -122.2658299, "id": "1020130", "name": "Telegraph Av & 36th St"}, "50922": {"latitude": 37.8610899, "code": "50922", "longitude": -122.28993, "id": "0302230", "name": "Dwight Way & San Pablo Av"}, "50432": {"latitude": 37.85628, "code": "50432", "longitude": -122.24664, "id": "0301600", "name": "Claremont Av & Hazel Rd"}, "54995": {"latitude": 37.8038499, "code": "54995", "longitude": -122.23383, "id": "1017600", "name": "Park Blvd & Macarthur Blvd (Oakland High S"}, "55217": {"latitude": 37.85616, "code": "55217", "longitude": -122.25936, "id": "0301060", "name": "Ashby Av & Telegraph Av"}, "59889": {"latitude": 37.8017399, "code": "59889", "longitude": -122.2452299, "id": "1017660", "name": "Park Blvd & Van Dyke Av"}, "57957": {"latitude": 37.8880999, "code": "57957", "longitude": -122.2984, "id": "0200380", "name": "San Pablo Av & Buchanan St"}, "54588": {"latitude": 37.87526, "code": "54588", "longitude": -122.26863, "id": "0304850", "name": "Shattuck Av & Delaware St"}, "57955": {"latitude": 37.8753, "code": "57955", "longitude": -122.25797, "id": "0303140", "name": "Hearst Av & Le Roy Av"}, "54585": {"latitude": 37.7566099, "code": "54585", "longitude": -122.1814, "id": "1008750", "name": "International Blvd & 80th Av"}, "51251": {"latitude": 37.8915499, "code": "51251", "longitude": -122.27751, "id": "0305210", "name": "Solano Av & The Alameda"}, "57188": {"latitude": 37.9020999, "code": "57188", "longitude": -122.27075, "id": "0306260", "name": "Spruce St & Vassar Av"}, "56451": {"latitude": 37.8402199, "code": "56451", "longitude": -122.2671299, "id": "1002970", "name": "55th St & Dover St"}, "56555": {"latitude": 37.86668, "code": "56555", "longitude": -122.26723, "id": "0302020", "name": "Durant Av & Shattuck Av"}, "55678": {"latitude": 37.87092, "code": "55678", "longitude": -122.26763, "id": "0306220", "name": "Shattuck Av & Center St"}, "55770": {"latitude": 37.8102199, "code": "55770", "longitude": -122.27297, "id": "1001300", "name": "Thomas L Berkley Way (20th St) & San Pablo"}, "55777": {"latitude": 37.8091, "code": "55777", "longitude": -122.2687999, "id": "1031070", "name": "Thomas L Berkley Way (20th St) & Telegraph"}, "50151": {"latitude": 37.86209, "code": "50151", "longitude": -122.267, "id": "0304980", "name": "Shattuck Av & Parker St"}, "58289": {"latitude": 37.90085, "code": "58289", "longitude": -122.2664199, "id": "0302860", "name": "Grizzly Peak Blvd & Creston Rd (North-West"}, "53589": {"latitude": 37.8829399, "code": "53589", "longitude": -122.2503, "id": "0304740", "name": "Senior Av & Fairlawn Dr"}, "51314": {"latitude": 37.885, "code": "51314", "longitude": -122.3001199, "id": "9902840", "name": "Jackson St & Ohlongitudee Av"}, "55850": {"latitude": 37.76972, "code": "55850", "longitude": -122.2095599, "id": "1008550", "name": "International Blvd & 49th Av"}, "55507": {"latitude": 37.88032, "code": "55507", "longitude": -122.2694499, "id": "0305060", "name": "Shattuck Av & Vine St"}, "52279": {"latitude": 37.8911899, "code": "52279", "longitude": -122.28406, "id": "0305190", "name": "Solano Av & Tacoma Av"}, "55855": {"latitude": 37.8686, "code": "55855", "longitude": -122.29408, "id": "0305820", "name": "University Av & 9th St"}, "54050": {"latitude": 37.8696099, "code": "54050", "longitude": -122.2526499, "id": "0301150", "name": "Bancroft Way & Piedmont Av"}, "55136": {"latitude": 37.84786, "code": "55136", "longitude": -122.26072, "id": "1020320", "name": "Telegraph Av & 62nd St"}, "56320": {"latitude": 37.8795899, "code": "56320", "longitude": -122.26111, "id": "0302360", "name": "Euclid Av & Cedar St"}, "52271": {"latitude": 37.8826499, "code": "52271", "longitude": -122.29637, "id": "0304580", "name": "San Pablo Av & Harrison St"}, "52273": {"latitude": 37.8777699, "code": "52273", "longitude": -122.29481, "id": "0304630", "name": "San Pablo Av & Page St"}, "55919": {"latitude": 37.8533799, "code": "55919", "longitude": -122.2788099, "id": "0301000", "name": "Ashby Av & Sacramento St"}, "55695": {"latitude": 37.7516399, "code": "55695", "longitude": -122.17573, "id": "1008810", "name": "International Blvd & 87th Av"}, "54358": {"latitude": 37.8905, "code": "54358", "longitude": -122.2525799, "id": "0303020", "name": "Grizzly Peak Blvd & Shasta Rd"}, "54359": {"latitude": 37.89218, "code": "54359", "longitude": -122.26692, "id": "0305390", "name": "Spruce St & Santa Barbara Rd"}, "51114": {"latitude": 37.85511, "code": "51114", "longitude": -122.25972, "id": "0305630", "name": "Telegraph Av & Webster St"}, "54357": {"latitude": 37.8907599, "code": "54357", "longitude": -122.2637, "id": "0302390", "name": "Euclid Av & Cragmont Av"}, "55915": {"latitude": 37.8521799, "code": "55915", "longitude": -122.29138, "id": "0300220", "name": "7th St & Anthony St"}, "54351": {"latitude": 37.8933699, "code": "54351", "longitude": -122.26789, "id": "0305320", "name": "Spruce St & Marin Av"}, "54352": {"latitude": 37.88262, "code": "54352", "longitude": -122.2662199, "id": "0305360", "name": "Spruce St & Rose St"}, "54353": {"latitude": 37.78625, "code": "54353", "longitude": -122.2408599, "id": "1008340", "name": "International Blvd & 19th Av"}, "52424": {"latitude": 37.85794, "code": "52424", "longitude": -122.25934, "id": "0305590", "name": "Telegraph Av & Russell St"}, "57827": {"latitude": 37.8663999, "code": "57827", "longitude": -122.3060299, "id": "0306090", "name": "University Av & W Frontage Rd"}, "59900": {"latitude": 37.8700996, "code": "59900", "longitude": -122.2839223, "id": "0305840", "name": "University Av & Acton St"}, "51171": {"latitude": 37.85426, "code": "51171", "longitude": -122.27061, "id": "0300930", "name": "Ashby Av & Martin Luther King Jr Way(Ashby"}, "55712": {"latitude": 37.8909, "code": "55712", "longitude": -122.2672999, "id": "0305370", "name": "Spruce St & San Benito Rd"}, "54559": {"latitude": 37.8527599, "code": "54559", "longitude": -122.2839899, "id": "0300910", "name": "Ashby Av & Mabel St"}, "51179": {"latitude": 37.8820999, "code": "51179", "longitude": -122.26719, "id": "0303920", "name": "Oxford St & Rose St"}, "51951": {"latitude": 37.8565899, "code": "51951", "longitude": -122.25712, "id": "0300980", "name": "Ashby Av & Regent St"}, "51774": {"latitude": 37.80605, "code": "51774", "longitude": -122.225, "id": "1017500", "name": "Park Blvd & Glen Park Rd"}, "55598": {"latitude": 37.75558, "code": "55598", "longitude": -122.1796999, "id": "1008780", "name": "International Blvd & 82nd Av"}, "57277": {"latitude": 37.8046999, "code": "57277", "longitude": -122.23299, "id": "1017350", "name": "Park Blvd & Chatham Rd"}, "51959": {"latitude": 37.86158, "code": "51959", "longitude": -122.28557, "id": "0302140", "name": "Dwight Way & Mabel St"}, "56527": {"latitude": 37.80463, "code": "56527", "longitude": -122.22805, "id": "1017520", "name": "Park Blvd & Greenwood Av"}, "56521": {"latitude": 37.87217, "code": "56521", "longitude": -122.2661999, "id": "0306670", "name": "Oxford St & University Av"}, "55593": {"latitude": 37.8684599, "code": "55593", "longitude": -122.26191, "id": "0301130", "name": "Bancroft Way & Dana St"}, "56522": {"latitude": 37.79331, "code": "56522", "longitude": -122.2511799, "id": "1030640", "name": "International Blvd & 8th Av"}, "54555": {"latitude": 37.79946, "code": "54555", "longitude": -122.2655699, "id": "1030690", "name": "11th St & Madison St"}, "52589": {"latitude": 37.87201, "code": "52589", "longitude": -122.28199, "id": "0304260", "name": "Sacramento St & Hearst Av"}, "57288": {"latitude": 37.85959, "code": "57288", "longitude": -122.2939799, "id": "0306450", "name": "7th St & Cutter Way"}, "51877": {"latitude": 37.89074, "code": "51877", "longitude": -122.2640499, "id": "0302400", "name": "Euclid Av & Cragmont Av"}, "55827": {"latitude": 37.8827599, "code": "55827", "longitude": -122.25229, "id": "0301090", "name": "Avenida Dr & Campus Dr"}, "54120": {"latitude": 37.88033, "code": "54120", "longitude": -122.2671299, "id": "0303950", "name": "Oxford St & Vine St"}, "54124": {"latitude": 37.89406, "code": "54124", "longitude": -122.2583099, "id": "0302970", "name": "Grizzly Peak Blvd & latitudeham Ln"}, "55420": {"latitude": 37.9089499, "code": "55420", "longitude": -122.27296, "id": "9900960", "name": "Purdue Av & Kenyon Av"}, "58545": {"latitude": 37.9071199, "code": "58545", "longitude": -122.2701799, "id": "9900500", "name": "Beloit Av & Grizzly Peak Blvd"}, "53254": {"latitude": 37.8751299, "code": "53254", "longitude": -122.28234, "id": "0304370", "name": "Sacramento St & Virginia St"}, "55321": {"latitude": 37.8884499, "code": "55321", "longitude": -122.2668499, "id": "0305310", "name": "Spruce St & Los Angeles Av"}, "56736": {"latitude": 37.85549, "code": "56736", "longitude": -122.2690099, "id": "0300410", "name": "Adeline St & Russell St"}, "51104": {"latitude": 37.83434, "code": "51104", "longitude": -122.27291, "id": "1015790", "name": "Market St & 45th St"}, "52656": {"latitude": 37.7290799, "code": "52656", "longitude": -122.159, "id": "1501330", "name": "E 14th St & Begier Av"}, "52121": {"latitude": 37.82325, "code": "52121", "longitude": -122.26998, "id": "1016120", "name": "Martin Luther King Jr Way & 34th St"}, "50877": {"latitude": 37.86178, "code": "50877", "longitude": -122.28394, "id": "0302260", "name": "Dwight Way & Valley St"}, "53700": {"latitude": 37.87347, "code": "53700", "longitude": -122.2552299, "id": "0302670", "name": "Gayley Rd & Greek Theater"}, "57345": {"latitude": 37.83997, "code": "57345", "longitude": -122.26736, "id": "1002960", "name": "55th St & Dover St"}, "51510": {"latitude": 37.8625299, "code": "51510", "longitude": -122.2470999, "id": "0301950", "name": "Derby St & Claremont Blvd"}, "57330": {"latitude": 37.8570799, "code": "57330", "longitude": -122.2684899, "id": "0300400", "name": "Adeline St & Oregon St"}, "52556": {"latitude": 37.86021, "code": "52556", "longitude": -122.29368, "id": "0302050", "name": "Dwight Way & 7th St"}, "51815": {"latitude": 37.84005, "code": "51815", "longitude": -122.26181, "id": "1020270", "name": "Telegraph Av & 55th St"}, "58888": {"latitude": 37.80064, "code": "58888", "longitude": -122.2685899, "id": "1030760", "name": "11th St & Harrison St"}, "53383": {"latitude": 37.76331, "code": "53383", "longitude": -122.1959899, "id": "1008670", "name": "International Blvd & 64th Av"}, "50475": {"latitude": 37.83975, "code": "50475", "longitude": -122.26921, "id": "1031860", "name": "55th St & Mlk Jr Way"}, "55139": {"latitude": 37.8419099, "code": "55139", "longitude": -122.2618099, "id": "1020360", "name": "Telegraph Av & Aileen St"}, "53385": {"latitude": 37.74721, "code": "53385", "longitude": -122.1727899, "id": "1008840", "name": "International Blvd & 94th Av"}, "50478": {"latitude": 37.8451706, "code": "50478", "longitude": -122.2521482, "id": "1031880", "name": "Miles Av & College Av"}, "58883": {"latitude": 37.8672699, "code": "58883", "longitude": -122.30068, "id": "0305760", "name": "University Av & 3rd St"}, "55133": {"latitude": 37.8905, "code": "55133", "longitude": -122.2933, "id": "0200630", "name": "Solano Av & Masonic Av"}, "50575": {"latitude": 37.86335, "code": "50575", "longitude": -122.27175, "id": "0302160", "name": "Dwight Way & Martin Luther King Jr Way"}, "58887": {"latitude": 37.7960099, "code": "58887", "longitude": -122.25403, "id": "1030650", "name": "International Blvd & 5th Av"}, "55327": {"latitude": 37.8753599, "code": "55327", "longitude": -122.2939, "id": "0301480", "name": "Cedar St & San Pablo Av"}, "55443": {"latitude": 37.8046099, "code": "55443", "longitude": -122.2297699, "id": "1017470", "name": "Park Blvd & Emerson Way"}, "52154": {"latitude": 37.8764415, "code": "52154", "longitude": -122.2827201, "id": "0304180", "name": "Sacramento St & Cedar St"}, "52155": {"latitude": 37.8666, "code": "52155", "longitude": -122.26752, "id": "0304900", "name": "Shattuck Av & Durant Av"}, "57046": {"latitude": 37.8254999, "code": "57046", "longitude": -122.2095, "id": "1031230", "name": "Mountain Blvd & Moraga Av"}, "50801": {"latitude": 37.8854299, "code": "50801", "longitude": -122.27109, "id": "0303210", "name": "Henry St & Eunice St"}, "50774": {"latitude": 37.83135, "code": "50774", "longitude": -122.26793, "id": "1016180", "name": "Martin Luther King Jr Way & 42nd St"}, "59570": {"latitude": 37.8459699, "code": "59570", "longitude": -122.2732999, "id": "1019840", "name": "Stanford Av & King St"}, "58865": {"latitude": 37.8067799, "code": "58865", "longitude": -122.2239199, "id": "1017320", "name": "Park Blvd & #4135"}, "51078": {"latitude": 37.86864, "code": "51078", "longitude": -122.25913, "id": "9902390", "name": "Telegraph Av & Bancroft Way"}, "58860": {"latitude": 37.86242, "code": "58860", "longitude": -122.24728, "id": "0301960", "name": "Derby St & Claremont Blvd"}, "54545": {"latitude": 37.7310899, "code": "54545", "longitude": -122.16056, "id": "1501420", "name": "E 14th St & Dutton Av"}, "55095": {"latitude": 37.82629, "code": "55095", "longitude": -122.2107199, "id": "1016690", "name": "Moraga Av & La Salle Av"}, "55722": {"latitude": 37.8705899, "code": "55722", "longitude": -122.2816299, "id": "0306040", "name": "University Av & Sacramento St"}, "50125": {"latitude": 37.89605, "code": "50125", "longitude": -122.2659599, "id": "0302590", "name": "Euclid Av & Rock Ln"}, "55518": {"latitude": 37.7893399, "code": "55518", "longitude": -122.24578, "id": "1008300", "name": "International Blvd & 14th Av"}, "59810": {"latitude": 37.87844, "code": "59810", "longitude": -122.2669199, "id": "0303900", "name": "Oxford St & Cedar St"}, "57999": {"latitude": 37.8095899, "code": "57999", "longitude": -122.26941, "id": "1031030", "name": "Thomas L Berkley Way (20th St) & Telegraph"}, "52727": {"latitude": 37.80027, "code": "52727", "longitude": -122.25442, "id": "1013670", "name": "Lakeshore Av & E 18th St"}, "50699": {"latitude": 37.8540599, "code": "50699", "longitude": -122.2734999, "id": "0300860", "name": "Ashby Av & Ellis St"}, "54944": {"latitude": 37.7254399, "code": "54944", "longitude": -122.1579899, "id": "1500860", "name": "Davis St & Hays St"}, "null": {"latitude": 37.7900999, "code": null, "longitude": -122.39384, "id": "301410400", "name": "Transbay Temp Terminal"}, "51073": {"latitude": 37.87383, "code": "51073", "longitude": -122.2663799, "id": "9902360", "name": "Oxford St & Hearst Av"}, "53335": {"latitude": 37.80651, "code": "53335", "longitude": -122.26971, "id": "1006420", "name": "Broadway & 17th St (19th St BART Station)"}, "53334": {"latitude": 37.80154, "code": "53334", "longitude": -122.2708699, "id": "1000380", "name": "11th St & Franklin St"}, "54435": {"latitude": 37.77087, "code": "54435", "longitude": -122.2119799, "id": "1008520", "name": "International Blvd & 46th Av"}, "55435": {"latitude": 37.81684, "code": "55435", "longitude": -122.27158, "id": "1016050", "name": "Martin Luther King Jr Way & 27th St"}, "51582": {"latitude": 37.86336, "code": "51582", "longitude": -122.2537499, "id": "9903610", "name": "College Av & Parker St"}, "51583": {"latitude": 37.8707399, "code": "51583", "longitude": -122.2802799, "id": "9903620", "name": "University Av & California St"}, "51581": {"latitude": 37.80031, "code": "51581", "longitude": -122.2485, "id": "1017640", "name": "Park Blvd & Newton Av"}, "55006": {"latitude": 37.87493, "code": "55006", "longitude": -122.26055, "id": "0303120", "name": "Hearst Av & Euclid Av"}, "51584": {"latitude": 37.8672, "code": "51584", "longitude": -122.26322, "id": "9903630", "name": "Durant Av & Ellsworth St"}, "55004": {"latitude": 37.81124, "code": "55004", "longitude": -122.2736599, "id": "1018450", "name": "San Pablo Av & Castro St"}, "55548": {"latitude": 37.86794, "code": "55548", "longitude": -122.29735, "id": "0305790", "name": "University Av & 6th St"}, "54315": {"latitude": 37.8863, "code": "54315", "longitude": -122.26655, "id": "0305240", "name": "Spruce St & Eunice St"}, "55265": {"latitude": 37.8914399, "code": "55265", "longitude": -122.27969, "id": "0305140", "name": "Solano Av & Colusa Av"}, "55264": {"latitude": 37.8876999, "code": "55264", "longitude": -122.2613599, "id": "0302280", "name": "Euclid Av & #1152"}, "55541": {"latitude": 37.7920199, "code": "55541", "longitude": -122.24952, "id": "1008280", "name": "International Blvd & 10th Av"}, "56161": {"latitude": 37.82229, "code": "56161", "longitude": -122.26619, "id": "1020100", "name": "Telegraph Av & 34th St"}, "55544": {"latitude": 37.7558499, "code": "55544", "longitude": -122.1798, "id": "1030780", "name": "International Blvd & 82nd Av"}, "55545": {"latitude": 37.7402299, "code": "55545", "longitude": -122.16723, "id": "1008260", "name": "International Blvd & 104th Av"}, "55246": {"latitude": 37.8628499, "code": "55246", "longitude": -122.2765099, "id": "0302180", "name": "Dwight Way & Mc Gee Av"}, "51215": {"latitude": 37.8597099, "code": "51215", "longitude": -122.2593299, "id": "0305610", "name": "Telegraph Av & Stuart St"}, "55241": {"latitude": 37.8766899, "code": "55241", "longitude": -122.2830199, "id": "0301460", "name": "Cedar St & Sacramento St"}, "59765": {"latitude": 37.8882, "code": "59765", "longitude": -122.2534899, "id": "0304770", "name": "Shasta Rd & Queens Rd"}, "51633": {"latitude": 37.8590299, "code": "51633", "longitude": -122.2450899, "id": "0304060", "name": "Russell St & Claremont Blvd"}, "52245": {"latitude": 37.89075, "code": "52245", "longitude": -122.28892, "id": "0200700", "name": "Solano Av & Santa Fe Av"}, "56568": {"latitude": 37.89064, "code": "56568", "longitude": -122.29093, "id": "0200680", "name": "Solano Av & Ramona Av"}, "57467": {"latitude": 37.89089, "code": "57467", "longitude": -122.26716, "id": "0305380", "name": "Spruce St & San Benito Rd"}, "56686": {"latitude": 37.76766, "code": "56686", "longitude": -122.2052399, "id": "1008580", "name": "International Blvd & 54th Av"}, "54225": {"latitude": 37.81901, "code": "54225", "longitude": -122.27105, "id": "1016080", "name": "Martin Luther King Jr Way & 29th St"}, "50604": {"latitude": 37.87333, "code": "50604", "longitude": -122.28215, "id": "0306740", "name": "Sacramento St & Delaware St"}, "55314": {"latitude": 37.87754, "code": "55314", "longitude": -122.2607299, "id": "0302620", "name": "Euclid Av & Virginia St"}, "55313": {"latitude": 37.86137, "code": "55313", "longitude": -122.28704, "id": "0302170", "name": "Dwight Way & Mathews St"}, "50600": {"latitude": 37.8619, "code": "50600", "longitude": -122.2535999, "id": "0301690", "name": "College Av & Derby St"}, "55649": {"latitude": 37.84169, "code": "55649", "longitude": -122.26157, "id": "1020370", "name": "Telegraph Av & Aileen St"}, "54426": {"latitude": 37.85087, "code": "54426", "longitude": -122.25101, "id": "1031080", "name": "Claremont Av & Mystic St"}, "51220": {"latitude": 37.8980499, "code": "51220", "longitude": -122.26204, "id": "0303040", "name": "Grizzly Peak Blvd & Sunset Ln"}, "54383": {"latitude": 37.89153, "code": "54383", "longitude": -122.2550199, "id": "0303030", "name": "Grizzly Peak Blvd & Stevenson Av"}, "51225": {"latitude": 37.84669, "code": "51225", "longitude": -122.2654599, "id": "1019200", "name": "Shattuck Av & 61st St"}, "57799": {"latitude": 37.8913, "code": "57799", "longitude": -122.27876, "id": "0305150", "name": "Solano Av & Colusa Av"}, "56667": {"latitude": 37.87037, "code": "56667", "longitude": -122.28135, "id": "0306050", "name": "University Av & Sacramento St"}, "54165": {"latitude": 37.89797, "code": "54165", "longitude": -122.26986, "id": "0305290", "name": "Spruce St & Halkin Ln"}, "56665": {"latitude": 37.8294899, "code": "56665", "longitude": -122.26421, "id": "1020160", "name": "Telegraph Av & 40th St"}, "59937": {"latitude": 37.8404999, "code": "59937", "longitude": -122.2649399, "id": "1002980", "name": "55th St & Shattuck Av"}, "51135": {"latitude": 37.84698, "code": "51135", "longitude": -122.26533, "id": "1019210", "name": "Shattuck Av & 61st St"}, "59935": {"latitude": 37.8207299, "code": "59935", "longitude": -122.2708199, "id": "1016090", "name": "Martin Luther King Jr Way & 31st St"}, "55520": {"latitude": 37.8191699, "code": "55520", "longitude": -122.2672899, "id": "1020070", "name": "Telegraph Av & 30th St"}, "59939": {"latitude": 37.8101899, "code": "59939", "longitude": -122.2172099, "id": "1017460", "name": "Park Blvd & Elsinore Walk"}, "58588": {"latitude": 37.77758, "code": "58588", "longitude": -122.2260399, "id": "1008890", "name": "International Blvd & Fruitvale Av"}, "54363": {"latitude": 37.9024, "code": "54363", "longitude": -122.27057, "id": "0305410", "name": "Spruce St & Vassar Av"}, "55941": {"latitude": 37.88212, "code": "55941", "longitude": -122.2673299, "id": "0303930", "name": "Oxford St & Rose St"}, "59114": {"latitude": 37.86424, "code": "59114", "longitude": -122.2503899, "id": "0306150", "name": "Warring St & Parker St"}, "50234": {"latitude": 37.87548, "code": "50234", "longitude": -122.29165, "id": "0301340", "name": "Cedar St & Cornell Av"}, "54000": {"latitude": 37.7595399, "code": "54000", "longitude": -122.18752, "id": "1030720", "name": "International Blvd & 73rd Av"}, "55867": {"latitude": 37.8864899, "code": "55867", "longitude": -122.2976, "id": "0200410", "name": "San Pablo Av & Marin Av"}, "54003": {"latitude": 37.81306, "code": "54003", "longitude": -122.21402, "id": "1017570", "name": "Park Blvd & Leimert Blvd"}, "57777": {"latitude": 37.80184, "code": "57777", "longitude": -122.2718999, "id": "1000350", "name": "11th St & Broadway (12th St BART Station)"}, "57776": {"latitude": 37.8725399, "code": "57776", "longitude": -122.26832, "id": "0305050", "name": "Shattuck Av & University Av"}, "57956": {"latitude": 37.8950899, "code": "57956", "longitude": -122.26448, "id": "0302520", "name": "Euclid Av & Marin Av"}, "52339": {"latitude": 37.85527, "code": "52339", "longitude": -122.26619, "id": "0301030", "name": "Ashby Av & Shattuck Av"}, "59593": {"latitude": 37.8611599, "code": "59593", "longitude": -122.2591299, "id": "0305480", "name": "Telegraph Av & Derby St"}, "59592": {"latitude": 37.88625, "code": "59592", "longitude": -122.2718899, "id": "0305450", "name": "Sutter St & Yolo Av"}, "56200": {"latitude": 37.8610999, "code": "56200", "longitude": -122.28916, "id": "0302240", "name": "Dwight Way & San Pablo Av"}, "52237": {"latitude": 37.83296, "code": "52237", "longitude": -122.27326, "id": "1015770", "name": "Market St & 43rd St"}, "52239": {"latitude": 37.8548099, "code": "52239", "longitude": -122.26868, "id": "0300750", "name": "Ashby Av & Adeline St (Ashby BART Station)"}, "52238": {"latitude": 37.7277934, "code": "52238", "longitude": -122.1581925, "id": "1501550", "name": "E 14th St & Toler Av"}, "52333": {"latitude": 37.8683, "code": "52333", "longitude": -122.25463, "id": "0301980", "name": "Durant Av & College Av"}, "55898": {"latitude": 37.8377899, "code": "55898", "longitude": -122.26869, "id": "1016250", "name": "Martin Luther King Jr Way & 53rd St"}, "52336": {"latitude": 37.8558699, "code": "52336", "longitude": -122.2626199, "id": "0300830", "name": "Ashby Av & Deakin St"}, "51123": {"latitude": 37.8480399, "code": "51123", "longitude": -122.2609599, "id": "1020330", "name": "Telegraph Av & 62nd St"}, "52257": {"latitude": 37.82944, "code": "52257", "longitude": -122.28727, "id": "0600920", "name": "40th St & Horton St"}, "57544": {"latitude": 37.8124799, "code": "57544", "longitude": -122.2151699, "id": "1100660", "name": "Park Blvd & Saint James Dr (Leimert Blvd)"}, "57010": {"latitude": 37.8839, "code": "57010", "longitude": -122.2663899, "id": "0305270", "name": "Spruce St & Glen Av"}, "57711": {"latitude": 37.86499, "code": "57711", "longitude": -122.25836, "id": "0305520", "name": "Telegraph Av & Dwight Way"}, "59432": {"latitude": 37.9009799, "code": "59432", "longitude": -122.26766, "id": "0302290", "name": "Euclid Av & Acacia Av"}, "52337": {"latitude": 37.8373999, "code": "52337", "longitude": -122.27344, "id": "1015830", "name": "Market St & 53rd St"}, "50734": {"latitude": 37.7979199, "code": "50734", "longitude": -122.25616, "id": "1032180", "name": "International Blvd & 2nd Av"}, "58518": {"latitude": 37.8338699, "code": "58518", "longitude": -122.2732399, "id": "1015780", "name": "Market St & 44th St"}, "56060": {"latitude": 37.8151399, "code": "56060", "longitude": -122.2722299, "id": "1016040", "name": "Martin Luther King Jr Way & 25th St"}, "52422": {"latitude": 37.83731, "code": "52422", "longitude": -122.2688799, "id": "1016240", "name": "Martin Luther King Jr Way & 52nd St(Childr"}, "57165": {"latitude": 37.81244, "code": "57165", "longitude": -122.21485, "id": "1017580", "name": "Park Blvd & Leimert Blvd"}, "51667": {"latitude": 37.8606099, "code": "51667", "longitude": -122.2921499, "id": "0302060", "name": "Dwight Way & 9th St"}, "50493": {"latitude": 37.8934099, "code": "50493", "longitude": -122.24564, "id": "9901470", "name": "Wildcat Canyon Rd & Brazillian Building"}, "55449": {"latitude": 37.7776399, "code": "55449", "longitude": -122.22566, "id": "1008900", "name": "International Blvd & Fruitvale Av"}, "55448": {"latitude": 37.88345, "code": "55448", "longitude": -122.29998, "id": "0200120", "name": "Jackson St & 8th St"}, "57335": {"latitude": 37.8698399, "code": "57335", "longitude": -122.2874199, "id": "0305880", "name": "University Av & Bonar St"}, "58889": {"latitude": 37.87237, "code": "58889", "longitude": -122.2685399, "id": "0305040", "name": "Shattuck Av & University Av"}, "54466": {"latitude": 37.87203, "code": "54466", "longitude": -122.26857, "id": "0306080", "name": "University Av & Shattuck Av"}, "55194": {"latitude": 37.8838099, "code": "55194", "longitude": -122.25304, "id": "0301220", "name": "Campus Dr & Del Mar Av"}, "54666": {"latitude": 37.74003, "code": "54666", "longitude": -122.1674799, "id": "1008270", "name": "International Blvd & 104th Av"}, "52566": {"latitude": 37.8691099, "code": "52566", "longitude": -122.29254, "id": "0306410", "name": "University Av & San Pablo Av"}, "52929": {"latitude": 37.85573, "code": "52929", "longitude": -122.2529999, "id": "0301790", "name": "College Av & Webster St"}, "50540": {"latitude": 37.85274, "code": "50540", "longitude": -122.28345, "id": "0300900", "name": "Ashby Av & Mabel St"}, "52214": {"latitude": 37.8316299, "code": "52214", "longitude": -122.2680699, "id": "1016190", "name": "Martin Luther King Jr Way & 42nd St"}, "54866": {"latitude": 37.8136299, "code": "54866", "longitude": -122.2139199, "id": "1100650", "name": "Park Blvd & Estates Dr"}, "55161": {"latitude": 37.83183, "code": "55161", "longitude": -122.26363, "id": "1020190", "name": "Telegraph Av & 43rd St"}, "54865": {"latitude": 37.8831099, "code": "54865", "longitude": -122.26161, "id": "0302600", "name": "Euclid Av & Rose Walk"}, "59234": {"latitude": 37.8613899, "code": "59234", "longitude": -122.2877899, "id": "0302110", "name": "Dwight Way & Curtis St"}, "51544": {"latitude": 37.87834, "code": "51544", "longitude": -122.26897, "id": "0304830", "name": "Shattuck Av & Cedar St"}, "55138": {"latitude": 37.86581, "code": "55138", "longitude": -122.2609899, "id": "0301930", "name": "Dana St & Haste St"}, "55168": {"latitude": 37.72903, "code": "55168", "longitude": -122.1592899, "id": "1501470", "name": "E 14th St & Lorraine Blvd"}, "51015": {"latitude": 37.86161, "code": "51015", "longitude": -122.25882, "id": "0305490", "name": "Telegraph Av & Derby St"}, "50429": {"latitude": 37.89975, "code": "50429", "longitude": -122.2557799, "id": "9900560", "name": "Central Park Dr & Lake Anza"}, "50426": {"latitude": 37.90623, "code": "50426", "longitude": -122.2636999, "id": "9900530", "name": "Canon Dr & Pony Rides"}, "53800": {"latitude": 37.8027099, "code": "53800", "longitude": -122.2396299, "id": "1017370", "name": "Park Blvd & Cleveland St"}, "50933": {"latitude": 37.9018399, "code": "50933", "longitude": -122.26761, "id": "0302450", "name": "Euclid Av & Grizzly Peak Blvd"}, "50422": {"latitude": 37.8465799, "code": "50422", "longitude": -122.2611399, "id": "1020310", "name": "Telegraph Av & 60th St"}}